[{"id": "WAInJdS3M-4JgUyzf_LoQg", "alias": "smokey-mo-tucson", "name": "Smokey Mo", "image_url": "https://s3-media2.fl.yelpcdn.com/bphoto/L0Jd9sZb3-3zPwH0-ZX-0w/o.jpg", "is_closed": false, "url": "https://www.yelp.com/biz/smokey-mo-tucson?adjust_creative=aS_rL-t7T-VBizbYoW5ToA&utm_campaign=yelp_api_v3&utm_medium=api_v3_business_search&utm_source=aS_rL-t7T-VBizbYoW5ToA", "review_count": 533, "categories": [{"alias": "bbq", "title": "Barbeque"}, {"alias": "burgers", "title": "Burgers"}, {"alias": "sandwiches", "title": "Sandwiches"}], "rating": 4.5, "coordinates": {"latitude": 32.2543430452397, "longitude": -110.961033134281}, "transactions": ["pickup", "delivery"], "price": "$$", "location": {"address1": "2650 N 1st Ave", "address2": "", "address3": null, "city": "Tucson", "zip_code": "85719", "country": "US", "state": "AZ", "display_address": ["2650 N 1st Ave", "Tucson, AZ 85719"]}, "phone": "+15202038250", "display_phone": "(520) 203-8250", "distance": 2941.2308213920605}, {"id": "QMo3URjgmyY_jU9GtYfxtA", "alias": "kens-hardwood-barbecue-tucson", "name": "Kens Hardwood Barbecue", "image_url": "https://s3-media3.fl.yelpcdn.com/bphoto/39vGA7vYMEnfWqArIDXjhA/o.jpg", "is_closed": false, "url": "https://www.yelp.com/biz/kens-hardwood-barbecue-tucson?adjust_creative=aS_rL-t7T-VBizbYoW5ToA&utm_campaign=yelp_api_v3&utm_medium=api_v3_business_search&utm_source=aS_rL-t7T-VBizbYoW5ToA", "review_count": 259, "categories": [{"alias": "bbq", "title": "Barbeque"}], "rating": 4.5, "coordinates": {"latitude": 32.20644, "longitude": -110.87996}, "transactions": ["pickup", "delivery"], "price": "$$", "location": {"address1": "5250 E 22nd St", "address2": "", "address3": "", "city": "Tucson", "zip_code": "85711", "country": "US", "state": "AZ", "display_address": ["5250 E 22nd St", "Tucson, AZ 85711"]}, "phone": "+15207454746", "display_phone": "(520) 745-4746", "distance": 6497.026672109403}, {"id": "pUeuBWxgll2in2KqKeAR_A", "alias": "firebirds-wood-fired-grill-tucson", "name": "Firebirds Wood Fired Grill", "image_url": "https://s3-media2.fl.yelpcdn.com/bphoto/hrkkpDJRiQCdrsQuNWixVA/o.jpg", "is_closed": false, "url": "https://www.yelp.com/biz/firebirds-wood-fired-grill-tucson?adjust_creative=aS_rL-t7T-VBizbYoW5ToA&utm_campaign=yelp_api_v3&utm_medium=api_v3_business_search&utm_source=aS_rL-t7T-VBizbYoW5ToA", "review_count": 503, "categories": [{"alias": "steak", "title": "Steakhouses"}, {"alias": "seafood", "title": "Seafood"}, {"alias": "wine_bars", "title": "Wine Bars"}], "rating": 4.0, "coordinates": {"latitude": 32.3253079094931, "longitude": -110.928469199089}, "transactions": ["pickup", "delivery"], "price": "$$", "location": {"address1": "2985 E Skyline Dr", "address2": null, "address3": "", "city": "Tucson", "zip_code": "85718", "country": "US", "state": "AZ", "display_address": ["2985 E Skyline Dr", "Tucson, AZ 85718"]}, "phone": "+15205770747", "display_phone": "(520) 577-0747", "distance": 8917.041610697206}, {"id": "UKImUPq5l6yHn_JO8DQZng", "alias": "the-neighborhood-tucson", "name": "The Neighborhood", "image_url": "https://s3-media2.fl.yelpcdn.com/bphoto/rGI0FZxVvtfbLpPdIZ4oYg/o.jpg", "is_closed": false, "url": "https://www.yelp.com/biz/the-neighborhood-tucson?adjust_creative=aS_rL-t7T-VBizbYoW5ToA&utm_campaign=yelp_api_v3&utm_medium=api_v3_business_search&utm_source=aS_rL-t7T-VBizbYoW5ToA", "review_count": 88, "categories": [{"alias": "sportsbars", "title": "Sports Bars"}, {"alias": "tradamerican", "title": "American (Traditional)"}], "rating": 4.0, "coordinates": {"latitude": 32.1993942260742, "longitude": -110.907417297363}, "transactions": ["delivery"], "price": "$$", "location": {"address1": "3940 E 29th St", "address2": null, "address3": "", "city": "Tucson", "zip_code": "85711", "country": "US", "state": "AZ", "display_address": ["3940 E 29th St", "Tucson, AZ 85711"]}, "phone": "+15202074004", "display_phone": "(520) 207-4004", "distance": 5562.121135107189}, {"id": "G98s4QCjcSRLsr9FSJ7qWQ", "alias": "the-horseshoe-grill-tucson", "name": "The Horseshoe Grill", "image_url": "https://s3-media2.fl.yelpcdn.com/bphoto/jPIgdI7vIbsyYC3zXlPMWQ/o.jpg", "is_closed": false, "url": "https://www.yelp.com/biz/the-horseshoe-grill-tucson?adjust_creative=aS_rL-t7T-VBizbYoW5ToA&utm_campaign=yelp_api_v3&utm_medium=api_v3_business_search&utm_source=aS_rL-t7T-VBizbYoW5ToA", "review_count": 390, "categories": [{"alias": "bbq", "title": "Barbeque"}, {"alias": "steak", "title": "Steakhouses"}, {"alias": "chicken_wings", "title": "Chicken Wings"}], "rating": 3.5, "coordinates": {"latitude": 32.2225669644023, "longitude": -110.826809182763}, "transactions": ["pickup", "delivery"], "price": "$$", "location": {"address1": "7713 E Broadway Blvd", "address2": "", "address3": "", "city": "Tucson", "zip_code": "85710", "country": "US", "state": "AZ", "display_address": ["7713 E Broadway Blvd", "Tucson, AZ 85710"]}, "phone": "+15208380404", "display_phone": "(520) 838-0404", "distance": 10180.769032379765}, {"id": "m415biOq0Fxy1h0J72yjfg", "alias": "firetruck-brewing-oro-valley", "name": "Firetruck Brewing", "image_url": "https://s3-media1.fl.yelpcdn.com/bphoto/yCgFIXjoBWA05t9WjJJJcw/o.jpg", "is_closed": false, "url": "https://www.yelp.com/biz/firetruck-brewing-oro-valley?adjust_creative=aS_rL-t7T-VBizbYoW5ToA&utm_campaign=yelp_api_v3&utm_medium=api_v3_business_search&utm_source=aS_rL-t7T-VBizbYoW5ToA", "review_count": 72, "categories": [{"alias": "brewpubs", "title": "Brewpubs"}, {"alias": "bbq", "title": "Barbeque"}, {"alias": "burgers", "title": "Burgers"}], "rating": 3.5, "coordinates": {"latitude": 32.381667, "longitude": -110.962916}, "transactions": ["pickup", "delivery"], "price": "$$", "location": {"address1": "9630 N Oracle Rd", "address2": "Ste 110", "address3": null, "city": "Oro Valley", "zip_code": "85704", "country": "US", "state": "AZ", "display_address": ["9630 N Oracle Rd", "Ste 110", "Oro Valley, AZ 85704"]}, "phone": "+15206127208", "display_phone": "(520) 612-7208", "distance": 15455.770833249093}, {"id": "NDL8FkN3ZPEGBM3sqRUV4Q", "alias": "craft-republic-tucson", "name": "Craft Republic", "image_url": "https://s3-media1.fl.yelpcdn.com/bphoto/r-_pa0L8ixYHphCUz4aEeA/o.jpg", "is_closed": false, "url": "https://www.yelp.com/biz/craft-republic-tucson?adjust_creative=aS_rL-t7T-VBizbYoW5ToA&utm_campaign=yelp_api_v3&utm_medium=api_v3_business_search&utm_source=aS_rL-t7T-VBizbYoW5ToA", "review_count": 175, "categories": [{"alias": "sportsbars", "title": "Sports Bars"}, {"alias": "newamerican", "title": "American (New)"}, {"alias": "burgers", "title": "Burgers"}], "rating": 3.5, "coordinates": {"latitude": 32.344384, "longitude": -111.013401}, "transactions": ["delivery"], "price": "$$", "location": {"address1": "7625 N LaCholla Blvd", "address2": "", "address3": null, "city": "Tucson", "zip_code": "85741", "country": "US", "state": "AZ", "display_address": ["7625 N LaCholla Blvd", "Tucson, AZ 85741"]}, "phone": "+15205751980", "display_phone": "(520) 575-1980", "distance": 13442.419014158842}, {"id": "w2XdjBApTWZowED4vwilpA", "alias": "holy-smokin-butts-bbq-tucson", "name": "Holy Smokin Butts BBQ", "image_url": "https://s3-media3.fl.yelpcdn.com/bphoto/AzPePlfSOCz40eOUluJ5XA/o.jpg", "is_closed": false, "url": "https://www.yelp.com/biz/holy-smokin-butts-bbq-tucson?adjust_creative=aS_rL-t7T-VBizbYoW5ToA&utm_campaign=yelp_api_v3&utm_medium=api_v3_business_search&utm_source=aS_rL-t7T-VBizbYoW5ToA", "review_count": 462, "categories": [{"alias": "bbq", "title": "Barbeque"}], "rating": 4.5, "coordinates": {"latitude": 32.2197008, "longitude": -110.8439763}, "transactions": ["delivery"], "price": "$$", "location": {"address1": "6940 E Broadway Blvd", "address2": null, "address3": null, "city": "Tucson", "zip_code": "85710", "country": "US", "state": "AZ", "display_address": ["6940 E Broadway Blvd", "Tucson, AZ 85710"]}, "phone": "+15203293088", "display_phone": "(520) 329-3088", "distance": 8723.511825933761}, {"id": "ajgvBDXmFllajSfKDIHTGw", "alias": "atl-wings-tucson-4", "name": "ATL Wings", "image_url": "https://s3-media3.fl.yelpcdn.com/bphoto/ENSQI69ufT-KsLQV86zm0g/o.jpg", "is_closed": false, "url": "https://www.yelp.com/biz/atl-wings-tucson-4?adjust_creative=aS_rL-t7T-VBizbYoW5ToA&utm_campaign=yelp_api_v3&utm_medium=api_v3_business_search&utm_source=aS_rL-t7T-VBizbYoW5ToA", "review_count": 188, "categories": [{"alias": "chicken_wings", "title": "Chicken Wings"}], "rating": 4.0, "coordinates": {"latitude": 32.23194, "longitude": -110.96538}, "transactions": ["pickup", "delivery"], "location": {"address1": "802 N4th Ave", "address2": null, "address3": "", "city": "Tucson", "zip_code": "85705", "country": "US", "state": "AZ", "display_address": ["802 N4th Ave", "Tucson, AZ 85705"]}, "phone": "+15202071771", "display_phone": "(520) 207-1771", "distance": 3492.6667010524693}, {"id": "jAI7DsVaQN84MkK3W7bovw", "alias": "wildfire-wing-tucson", "name": "Wildfire Wing", "image_url": "https://s3-media4.fl.yelpcdn.com/bphoto/Uun72IBbRD82nqJHESBBYw/o.jpg", "is_closed": false, "url": "https://www.yelp.com/biz/wildfire-wing-tucson?adjust_creative=aS_rL-t7T-VBizbYoW5ToA&utm_campaign=yelp_api_v3&utm_medium=api_v3_business_search&utm_source=aS_rL-t7T-VBizbYoW5ToA", "review_count": 18, "categories": [{"alias": "chicken_wings", "title": "Chicken Wings"}, {"alias": "salad", "title": "Salad"}, {"alias": "sandwiches", "title": "Sandwiches"}], "rating": 4.5, "coordinates": {"latitude": 32.48418, "longitude": -110.92054}, "transactions": [], "location": {"address1": "15318 N Oracle Rd", "address2": null, "address3": "", "city": "Tucson", "zip_code": "85739", "country": "US", "state": "AZ", "display_address": ["15318 N Oracle Rd", "Tucson, AZ 85739"]}, "phone": "+15208004748", "display_phone": "(520) 800-4748", "distance": 26584.569765498563}, {"id": "Tx9kwNLX2lYNqr2weKWEqg", "alias": "brushfire-bbq-tucson", "name": "BrushFire BBQ", "image_url": "https://s3-media2.fl.yelpcdn.com/bphoto/LpWlgX3FezD4DDHgqitXSg/o.jpg", "is_closed": false, "url": "https://www.yelp.com/biz/brushfire-bbq-tucson?adjust_creative=aS_rL-t7T-VBizbYoW5ToA&utm_campaign=yelp_api_v3&utm_medium=api_v3_business_search&utm_source=aS_rL-t7T-VBizbYoW5ToA", "review_count": 433, "categories": [{"alias": "bbq", "title": "Barbeque"}], "rating": 3.5, "coordinates": {"latitude": 32.256952, "longitude": -110.944299}, "transactions": ["pickup", "delivery"], "price": "$$", "location": {"address1": "2745 N Campbell Ave", "address2": "", "address3": "", "city": "Tucson", "zip_code": "85719", "country": "US", "state": "AZ", "display_address": ["2745 N Campbell Ave", "Tucson, AZ 85719"]}, "phone": "+15206243223", "display_phone": "(520) 624-3223", "distance": 1766.979396010394}, {"id": "JVCHzhy7oX292tbG2RskjA", "alias": "cluckers-no-title", "name": "Cluckers", "image_url": "https://s3-media4.fl.yelpcdn.com/bphoto/gGkQoeU2wBlsdNr77pAfog/o.jpg", "is_closed": false, "url": "https://www.yelp.com/biz/cluckers-no-title?adjust_creative=aS_rL-t7T-VBizbYoW5ToA&utm_campaign=yelp_api_v3&utm_medium=api_v3_business_search&utm_source=aS_rL-t7T-VBizbYoW5ToA", "review_count": 17, "categories": [{"alias": "chicken_wings", "title": "Chicken Wings"}, {"alias": "fooddeliveryservices", "title": "Food Delivery Services"}, {"alias": "sandwiches", "title": "Sandwiches"}], "rating": 5.0, "coordinates": {"latitude": 32.2634, "longitude": -110.96177}, "transactions": ["pickup", "delivery"], "price": "$$", "location": {"address1": "613 E Delano St", "address2": null, "address3": "", "city": "Tucson", "zip_code": "85705", "country": "US", "state": "AZ", "display_address": ["613 E Delano St", "Tucson, AZ 85705"]}, "phone": "+15202830796", "display_phone": "(520) 283-0796", "distance": 3489.6632958246555}, {"id": "6pVVwtFmd7VBsgyFPHvU_w", "alias": "union-public-house-tucson", "name": "Union Public House", "image_url": "https://s3-media3.fl.yelpcdn.com/bphoto/-bEKkmuHFdyYotsPGSzQ8w/o.jpg", "is_closed": false, "url": "https://www.yelp.com/biz/union-public-house-tucson?adjust_creative=aS_rL-t7T-VBizbYoW5ToA&utm_campaign=yelp_api_v3&utm_medium=api_v3_business_search&utm_source=aS_rL-t7T-VBizbYoW5ToA", "review_count": 1017, "categories": [{"alias": "tradamerican", "title": "American (Traditional)"}, {"alias": "cocktailbars", "title": "Cocktail Bars"}, {"alias": "wine_bars", "title": "Wine Bars"}], "rating": 3.5, "coordinates": {"latitude": 32.28625282123073, "longitude": -110.9424707778497}, "transactions": ["pickup", "delivery"], "price": "$$", "location": {"address1": "4340 N Campbell Ave", "address2": "Ste 100", "address3": "", "city": "Tucson", "zip_code": "85718", "country": "US", "state": "AZ", "display_address": ["4340 N Campbell Ave", "Ste 100", "Tucson, AZ 85718"]}, "phone": "+15203298575", "display_phone": "(520) 329-8575", "distance": 4679.990785286032}, {"id": "8QJTzIaR5FceGds8HBSIig", "alias": "barrio-brewing-tucson", "name": "Barrio Brewing", "image_url": "https://s3-media1.fl.yelpcdn.com/bphoto/UhsznHhTy_nhoPCktxWjHg/o.jpg", "is_closed": false, "url": "https://www.yelp.com/biz/barrio-brewing-tucson?adjust_creative=aS_rL-t7T-VBizbYoW5ToA&utm_campaign=yelp_api_v3&utm_medium=api_v3_business_search&utm_source=aS_rL-t7T-VBizbYoW5ToA", "review_count": 649, "categories": [{"alias": "breweries", "title": "Breweries"}, {"alias": "tradamerican", "title": "American (Traditional)"}, {"alias": "sportsbars", "title": "Sports Bars"}], "rating": 4.0, "coordinates": {"latitude": 32.2144, "longitude": -110.95925}, "transactions": ["delivery"], "price": "$$", "location": {"address1": "800 E 16th St", "address2": "", "address3": "", "city": "Tucson", "zip_code": "85719", "country": "US", "state": "AZ", "display_address": ["800 E 16th St", "Tucson, AZ 85719"]}, "phone": "+15207912739", "display_phone": "(520) 791-2739", "distance": 4305.063284930965}, {"id": "vPCDxMKCTLmVBFI_fo4Yew", "alias": "dres-seafood-and-bbq-tucson-2", "name": "DRE'S SeaFood and BBQ", "image_url": "https://s3-media1.fl.yelpcdn.com/bphoto/e7-1iJa091jQFyXOEGfVNA/o.jpg", "is_closed": false, "url": "https://www.yelp.com/biz/dres-seafood-and-bbq-tucson-2?adjust_creative=aS_rL-t7T-VBizbYoW5ToA&utm_campaign=yelp_api_v3&utm_medium=api_v3_business_search&utm_source=aS_rL-t7T-VBizbYoW5ToA", "review_count": 3, "categories": [{"alias": "bbq", "title": "Barbeque"}, {"alias": "seafood", "title": "Seafood"}, {"alias": "foodtrucks", "title": "Food Trucks"}], "rating": 4.0, "coordinates": {"latitude": 32.2415100858839, "longitude": -110.92321585730514}, "transactions": [], "location": {"address1": null, "address2": null, "address3": null, "city": "Tucson", "zip_code": "85716", "country": "US", "state": "AZ", "display_address": ["Tucson, AZ 85716"]}, "phone": "+15204771115", "display_phone": "(520) 477-1115", "distance": 895.4131088219818}, {"id": "zZ01WQlcpI1_n806WKV3bA", "alias": "culinary-dropout-tucson-2", "name": "Culinary Dropout", "image_url": "https://s3-media4.fl.yelpcdn.com/bphoto/LtBt2LHx6JSSSRinc8OT9A/o.jpg", "is_closed": false, "url": "https://www.yelp.com/biz/culinary-dropout-tucson-2?adjust_creative=aS_rL-t7T-VBizbYoW5ToA&utm_campaign=yelp_api_v3&utm_medium=api_v3_business_search&utm_source=aS_rL-t7T-VBizbYoW5ToA", "review_count": 1438, "categories": [{"alias": "newamerican", "title": "American (New)"}], "rating": 4.0, "coordinates": {"latitude": 32.25077, "longitude": -110.93433}, "transactions": ["delivery"], "price": "$$", "location": {"address1": "2543 E Grant Rd", "address2": null, "address3": null, "city": "Tucson", "zip_code": "85716", "country": "US", "state": "AZ", "display_address": ["2543 E Grant Rd", "Tucson, AZ 85716"]}, "phone": "+15202030934", "display_phone": "(520) 203-0934", "distance": 663.4187621374708}, {"id": "eS47zFS_fEJZHDW0DGj5mw", "alias": "kiss-of-smoke-bbq-tucson", "name": "Kiss Of Smoke BBQ", "image_url": "https://s3-media2.fl.yelpcdn.com/bphoto/tDGBR5C92qpBHfeZKRpbpA/o.jpg", "is_closed": false, "url": "https://www.yelp.com/biz/kiss-of-smoke-bbq-tucson?adjust_creative=aS_rL-t7T-VBizbYoW5ToA&utm_campaign=yelp_api_v3&utm_medium=api_v3_business_search&utm_source=aS_rL-t7T-VBizbYoW5ToA", "review_count": 111, "categories": [{"alias": "bbq", "title": "Barbeque"}], "rating": 4.5, "coordinates": {"latitude": 32.21355, "longitude": -110.93918}, "transactions": ["delivery"], "price": "$$", "location": {"address1": "663 S Plumer Ave", "address2": "", "address3": null, "city": "Tucson", "zip_code": "85719", "country": "US", "state": "AZ", "display_address": ["663 S Plumer Ave", "Tucson, AZ 85719"]}, "phone": "+15202707917", "display_phone": "(520) 270-7917", "distance": 3586.300200350265}, {"id": "HUhlFVMjZOgj1-N0JmCo-g", "alias": "brother-johns-beer-bourbon-and-bbq-tucson-4", "name": "Brother John's Beer Bourbon & BBQ", "image_url": "https://s3-media1.fl.yelpcdn.com/bphoto/prE3AxhyQm0j8s9f7ujhVQ/o.jpg", "is_closed": false, "url": "https://www.yelp.com/biz/brother-johns-beer-bourbon-and-bbq-tucson-4?adjust_creative=aS_rL-t7T-VBizbYoW5ToA&utm_campaign=yelp_api_v3&utm_medium=api_v3_business_search&utm_source=aS_rL-t7T-VBizbYoW5ToA", "review_count": 604, "categories": [{"alias": "bbq", "title": "Barbeque"}, {"alias": "beergardens", "title": "Beer Gardens"}, {"alias": "tradamerican", "title": "American (Traditional)"}], "rating": 3.0, "coordinates": {"latitude": 32.243993, "longitude": -110.972209}, "transactions": ["pickup", "delivery"], "price": "$$", "location": {"address1": "1801 N Stone Ave", "address2": null, "address3": "", "city": "Tucson", "zip_code": "85705", "country": "US", "state": "AZ", "display_address": ["1801 N Stone Ave", "Tucson, AZ 85705"]}, "phone": "+15208676787", "display_phone": "(520) 867-6787", "distance": 3811.774665378244}, {"id": "GI424F1KFvR7Ekdy5MDxVg", "alias": "fork-and-fire-smokehouse-taproom-oro-valley", "name": "Fork & Fire Smokehouse + Taproom", "image_url": "https://s3-media2.fl.yelpcdn.com/bphoto/gg6rWVb58yD12O1_VOlvOg/o.jpg", "is_closed": false, "url": "https://www.yelp.com/biz/fork-and-fire-smokehouse-taproom-oro-valley?adjust_creative=aS_rL-t7T-VBizbYoW5ToA&utm_campaign=yelp_api_v3&utm_medium=api_v3_business_search&utm_source=aS_rL-t7T-VBizbYoW5ToA", "review_count": 50, "categories": [{"alias": "newamerican", "title": "American (New)"}, {"alias": "bbq", "title": "Barbeque"}], "rating": 4.0, "coordinates": {"latitude": 32.42106, "longitude": -110.9384}, "transactions": ["pickup", "delivery"], "price": "$$", "location": {"address1": "11835 North Oracle Rd", "address2": null, "address3": "", "city": "Oro Valley", "zip_code": "85737", "country": "US", "state": "AZ", "display_address": ["11835 North Oracle Rd", "Oro Valley, AZ 85737"]}, "phone": "+15202226605", "display_phone": "(520) 222-6605", "distance": 19696.044442573595}, {"id": "4Lh3RmIM3scml_9DOxY2Sw", "alias": "kon-tiki-restaurant-and-lounge-tucson", "name": "Kon Tiki Restaurant & Lounge", "image_url": "https://s3-media3.fl.yelpcdn.com/bphoto/LxmvSlNzApROt-8C6JIBAA/o.jpg", "is_closed": false, "url": "https://www.yelp.com/biz/kon-tiki-restaurant-and-lounge-tucson?adjust_creative=aS_rL-t7T-VBizbYoW5ToA&utm_campaign=yelp_api_v3&utm_medium=api_v3_business_search&utm_source=aS_rL-t7T-VBizbYoW5ToA", "review_count": 330, "categories": [{"alias": "tradamerican", "title": "American (Traditional)"}, {"alias": "tikibars", "title": "Tiki Bars"}], "rating": 3.5, "coordinates": {"latitude": 32.22221, "longitude": -110.89374}, "transactions": ["delivery"], "price": "$$", "location": {"address1": "4625 E Broadway Blvd", "address2": "", "address3": "", "city": "Tucson", "zip_code": "85711", "country": "US", "state": "AZ", "display_address": ["4625 E Broadway Blvd", "Tucson, AZ 85711"]}, "phone": "+15203237193", "display_phone": "(520) 323-7193", "distance": 4382.715130685157}, {"id": "OuaqRGlscxMIqUoN4Vw41A", "alias": "silver-saddle-steakhouse-tucson", "name": "Silver Saddle Steakhouse", "image_url": "https://s3-media4.fl.yelpcdn.com/bphoto/LZXdRsMv0wEbbsFTnzv2yw/o.jpg", "is_closed": false, "url": "https://www.yelp.com/biz/silver-saddle-steakhouse-tucson?adjust_creative=aS_rL-t7T-VBizbYoW5ToA&utm_campaign=yelp_api_v3&utm_medium=api_v3_business_search&utm_source=aS_rL-t7T-VBizbYoW5ToA", "review_count": 670, "categories": [{"alias": "steak", "title": "Steakhouses"}, {"alias": "burgers", "title": "Burgers"}, {"alias": "bbq", "title": "Barbeque"}], "rating": 4.0, "coordinates": {"latitude": 32.18574, "longitude": -110.96523}, "transactions": ["delivery", "pickup"], "price": "$$", "location": {"address1": "310 E Benson Hwy", "address2": "", "address3": "", "city": "Tucson", "zip_code": "85713", "country": "US", "state": "AZ", "display_address": ["310 E Benson Hwy", "Tucson, AZ 85713"]}, "phone": "+15206226253", "display_phone": "(520) 622-6253", "distance": 7319.2587106760475}, {"id": "VeodynTzM0rC2OhkEDoQdg", "alias": "trident-grill-iii-tucson", "name": "Trident Grill III", "image_url": "https://s3-media1.fl.yelpcdn.com/bphoto/JyGIllR5csPP5Fyp63_v4w/o.jpg", "is_closed": false, "url": "https://www.yelp.com/biz/trident-grill-iii-tucson?adjust_creative=aS_rL-t7T-VBizbYoW5ToA&utm_campaign=yelp_api_v3&utm_medium=api_v3_business_search&utm_source=aS_rL-t7T-VBizbYoW5ToA", "review_count": 176, "categories": [{"alias": "sportsbars", "title": "Sports Bars"}, {"alias": "seafood", "title": "Seafood"}, {"alias": "tradamerican", "title": "American (Traditional)"}], "rating": 3.5, "coordinates": {"latitude": 32.21875, "longitude": -110.8759}, "transactions": ["delivery"], "price": "$$", "location": {"address1": "250 S Craycroft Rd", "address2": "", "address3": null, "city": "Tucson", "zip_code": "85711", "country": "US", "state": "AZ", "display_address": ["250 S Craycroft Rd", "Tucson, AZ 85711"]}, "phone": "+15205618083", "display_phone": "(520) 561-8083", "distance": 6022.159637965802}, {"id": "Kgbj_vB2pfxdClrLhfnlbQ", "alias": "the-delta-bar-and-grill-tucson", "name": "The Delta Bar & Grill", "image_url": "https://s3-media2.fl.yelpcdn.com/bphoto/QR9eEM3VRMYnrD0VXkRC7w/o.jpg", "is_closed": false, "url": "https://www.yelp.com/biz/the-delta-bar-and-grill-tucson?adjust_creative=aS_rL-t7T-VBizbYoW5ToA&utm_campaign=yelp_api_v3&utm_medium=api_v3_business_search&utm_source=aS_rL-t7T-VBizbYoW5ToA", "review_count": 99, "categories": [{"alias": "newamerican", "title": "American (New)"}, {"alias": "gastropubs", "title": "Gastropubs"}, {"alias": "southern", "title": "Southern"}], "rating": 4.0, "coordinates": {"latitude": 32.22059, "longitude": -110.96817}, "transactions": [], "price": "$$$", "location": {"address1": "135 S 6th Ave", "address2": "", "address3": null, "city": "Tucson", "zip_code": "85701", "country": "US", "state": "AZ", "display_address": ["135 S 6th Ave", "Tucson, AZ 85701"]}, "phone": "+15205243400", "display_phone": "(520) 524-3400", "distance": 4400.4244854291965}, {"id": "u5FV7F0Hjk6W-NGvxWqPRg", "alias": "bbq-rush-restaurant-tucson-2", "name": "BBQ Rush Restaurant", "image_url": "https://s3-media4.fl.yelpcdn.com/bphoto/Od8iisOgvo5Oo2kZtzT8IA/o.jpg", "is_closed": false, "url": "https://www.yelp.com/biz/bbq-rush-restaurant-tucson-2?adjust_creative=aS_rL-t7T-VBizbYoW5ToA&utm_campaign=yelp_api_v3&utm_medium=api_v3_business_search&utm_source=aS_rL-t7T-VBizbYoW5ToA", "review_count": 139, "categories": [{"alias": "bbq", "title": "Barbeque"}], "rating": 4.0, "coordinates": {"latitude": 32.1589627458644, "longitude": -110.924414768815}, "transactions": ["delivery", "pickup"], "price": "$$", "location": {"address1": "5151 S Country Club Rd", "address2": "", "address3": null, "city": "Tucson", "zip_code": "85706", "country": "US", "state": "AZ", "display_address": ["5151 S Country Club Rd", "Tucson, AZ 85706"]}, "phone": "+15208414527", "display_phone": "(520) 841-4527", "distance": 9609.345793396875}, {"id": "Qh-vuXF2kEVvj1ReRP_ztA", "alias": "texas-roadhouse-tucson-10", "name": "Texas Roadhouse", "image_url": "https://s3-media1.fl.yelpcdn.com/bphoto/XknFguaOMIf5VDfgTwlTyA/o.jpg", "is_closed": false, "url": "https://www.yelp.com/biz/texas-roadhouse-tucson-10?adjust_creative=aS_rL-t7T-VBizbYoW5ToA&utm_campaign=yelp_api_v3&utm_medium=api_v3_business_search&utm_source=aS_rL-t7T-VBizbYoW5ToA", "review_count": 369, "categories": [{"alias": "steak", "title": "Steakhouses"}, {"alias": "bbq", "title": "Barbeque"}, {"alias": "tradamerican", "title": "American (Traditional)"}], "rating": 3.5, "coordinates": {"latitude": 32.219353, "longitude": -110.8584127}, "transactions": ["delivery"], "price": "$$", "location": {"address1": "170 S Wilmot Rd", "address2": "", "address3": "", "city": "Tucson", "zip_code": "85711", "country": "US", "state": "AZ", "display_address": ["170 S Wilmot Rd", "Tucson, AZ 85711"]}, "phone": "+15205147427", "display_phone": "(520) 514-7427", "distance": 7466.970742403802}, {"id": "wJmyu7W1K9A_gE8Ed4Bc9w", "alias": "trident-grill-tucson-2", "name": "Trident Grill", "image_url": "https://s3-media2.fl.yelpcdn.com/bphoto/2eEsXB9J1cx-Gh2KkchvMA/o.jpg", "is_closed": false, "url": "https://www.yelp.com/biz/trident-grill-tucson-2?adjust_creative=aS_rL-t7T-VBizbYoW5ToA&utm_campaign=yelp_api_v3&utm_medium=api_v3_business_search&utm_source=aS_rL-t7T-VBizbYoW5ToA", "review_count": 403, "categories": [{"alias": "sportsbars", "title": "Sports Bars"}, {"alias": "tradamerican", "title": "American (Traditional)"}, {"alias": "seafood", "title": "Seafood"}], "rating": 4.0, "coordinates": {"latitude": 32.236334, "longitude": -110.941738}, "transactions": ["delivery"], "price": "$$", "location": {"address1": "2033 E Speedway Blvd", "address2": "Ste 101", "address3": "", "city": "Tucson", "zip_code": "85719", "country": "US", "state": "AZ", "display_address": ["2033 E Speedway Blvd", "Ste 101", "Tucson, AZ 85719"]}, "phone": "+15207955755", "display_phone": "(520) 795-5755", "distance": 1361.7891803951434}, {"id": "AhjA27jLtnm30f3YxI8hKg", "alias": "wingstop-tucson-3", "name": "Wingstop", "image_url": "https://s3-media3.fl.yelpcdn.com/bphoto/RkRyQs-ruCFXXRij4wMeeA/o.jpg", "is_closed": false, "url": "https://www.yelp.com/biz/wingstop-tucson-3?adjust_creative=aS_rL-t7T-VBizbYoW5ToA&utm_campaign=yelp_api_v3&utm_medium=api_v3_business_search&utm_source=aS_rL-t7T-VBizbYoW5ToA", "review_count": 76, "categories": [{"alias": "chicken_wings", "title": "Chicken Wings"}], "rating": 3.0, "coordinates": {"latitude": 32.2636337280273, "longitude": -110.94319152832}, "transactions": [], "price": "$$", "location": {"address1": "3122 N Campbell Ave", "address2": "", "address3": null, "city": "Tucson", "zip_code": "85719", "country": "US", "state": "AZ", "display_address": ["3122 N Campbell Ave", "Tucson, AZ 85719"]}, "phone": "+15207959464", "display_phone": "(520) 795-9464", "distance": 2324.334191614968}, {"id": "7_1GqlDlbkShY0az7J0XNg", "alias": "laco-tucson", "name": "LaCo", "image_url": "https://s3-media3.fl.yelpcdn.com/bphoto/ae5HeQUx9zJnmUKJzDDN7Q/o.jpg", "is_closed": false, "url": "https://www.yelp.com/biz/laco-tucson?adjust_creative=aS_rL-t7T-VBizbYoW5ToA&utm_campaign=yelp_api_v3&utm_medium=api_v3_business_search&utm_source=aS_rL-t7T-VBizbYoW5ToA", "review_count": 512, "categories": [{"alias": "bars", "title": "Bars"}, {"alias": "tradamerican", "title": "American (Traditional)"}, {"alias": "mexican", "title": "Mexican"}], "rating": 4.5, "coordinates": {"latitude": 32.22426, "longitude": -110.97427}, "transactions": ["delivery", "pickup"], "price": "$$", "location": {"address1": "201 N Court Ave", "address2": "", "address3": "", "city": "Tucson", "zip_code": "85701", "country": "US", "state": "AZ", "display_address": ["201 N Court Ave", "Tucson, AZ 85701"]}, "phone": "+15206220351", "display_phone": "(520) 622-0351", "distance": 4616.36453358986}, {"id": "wp_fwjX8JJC85F-sgb7ASg", "alias": "charlys-bbq-and-grill-tucson-2", "name": "Charly's BBQ & Grill", "image_url": "https://s3-media2.fl.yelpcdn.com/bphoto/DVPUzXo9LUa3TZRJV1lE9Q/o.jpg", "is_closed": false, "url": "https://www.yelp.com/biz/charlys-bbq-and-grill-tucson-2?adjust_creative=aS_rL-t7T-VBizbYoW5ToA&utm_campaign=yelp_api_v3&utm_medium=api_v3_business_search&utm_source=aS_rL-t7T-VBizbYoW5ToA", "review_count": 11, "categories": [{"alias": "foodtrucks", "title": "Food Trucks"}, {"alias": "bbq", "title": "Barbeque"}], "rating": 4.5, "coordinates": {"latitude": 32.131881, "longitude": -111.008426}, "transactions": [], "location": {"address1": "1974 w bellagio dr", "address2": null, "address3": "", "city": "Tucson", "zip_code": "85746", "country": "US", "state": "AZ", "display_address": ["1974 w bellagio dr", "Tucson, AZ 85746"]}, "phone": "+15202569583", "display_phone": "(520) 256-9583", "distance": 14521.91918890648}, {"id": "KCpO2BB2ib2S2bzMlwPgxA", "alias": "janet-and-rays-tucson-2", "name": "Janet & Ray's", "image_url": "https://s3-media4.fl.yelpcdn.com/bphoto/99g6dp6Bb0BYwsIYayPZqA/o.jpg", "is_closed": false, "url": "https://www.yelp.com/biz/janet-and-rays-tucson-2?adjust_creative=aS_rL-t7T-VBizbYoW5ToA&utm_campaign=yelp_api_v3&utm_medium=api_v3_business_search&utm_source=aS_rL-t7T-VBizbYoW5ToA", "review_count": 94, "categories": [{"alias": "caribbean", "title": "Caribbean"}, {"alias": "soulfood", "title": "Soul Food"}], "rating": 4.5, "coordinates": {"latitude": 32.20773634105995, "longitude": -110.876083}, "transactions": [], "price": "$$", "location": {"address1": "5443 E 22nd St", "address2": "", "address3": null, "city": "Tucson", "zip_code": "85711", "country": "US", "state": "AZ", "display_address": ["5443 E 22nd St", "Tucson, AZ 85711"]}, "phone": "+15203727500", "display_phone": "(520) 372-7500", "distance": 6685.006750798729}, {"id": "37HBpNmT60ZTdnNeweWdzg", "alias": "catalina-barbeque-co-and-sports-bar-tucson-2", "name": "Catalina Barbeque Co. & Sports Bar", "image_url": "https://s3-media2.fl.yelpcdn.com/bphoto/IphGhIz9AQZN3x-kRQwuUw/o.jpg", "is_closed": false, "url": "https://www.yelp.com/biz/catalina-barbeque-co-and-sports-bar-tucson-2?adjust_creative=aS_rL-t7T-VBizbYoW5ToA&utm_campaign=yelp_api_v3&utm_medium=api_v3_business_search&utm_source=aS_rL-t7T-VBizbYoW5ToA", "review_count": 144, "categories": [{"alias": "bbq", "title": "Barbeque"}, {"alias": "sportsbars", "title": "Sports Bars"}], "rating": 3.5, "coordinates": {"latitude": 32.208908, "longitude": -111.043085}, "transactions": ["delivery"], "price": "$$", "location": {"address1": "3645 W Starr Pass Blvd", "address2": "", "address3": "", "city": "Tucson", "zip_code": "85745", "country": "US", "state": "AZ", "display_address": ["3645 W Starr Pass Blvd", "Tucson, AZ 85745"]}, "phone": "+15206700444", "display_phone": "(520) 670-0444", "distance": 11225.96278158802}, {"id": "PrVxUo7g46GNf_1uusxaqQ", "alias": "the-blind-pig-tucson-4", "name": "The Blind Pig", "image_url": "https://s3-media4.fl.yelpcdn.com/bphoto/fkMEQl06uLNylXS5jUHpHQ/o.jpg", "is_closed": false, "url": "https://www.yelp.com/biz/the-blind-pig-tucson-4?adjust_creative=aS_rL-t7T-VBizbYoW5ToA&utm_campaign=yelp_api_v3&utm_medium=api_v3_business_search&utm_source=aS_rL-t7T-VBizbYoW5ToA", "review_count": 63, "categories": [{"alias": "bars", "title": "Bars"}, {"alias": "tradamerican", "title": "American (Traditional)"}, {"alias": "bbq", "title": "Barbeque"}], "rating": 3.5, "coordinates": {"latitude": 32.23209521577203, "longitude": -110.957217}, "transactions": ["delivery", "pickup"], "location": {"address1": "943 E University Blvd", "address2": "Ste 115", "address3": null, "city": "Tucson", "zip_code": "85719", "country": "US", "state": "AZ", "display_address": ["943 E University Blvd", "Ste 115", "Tucson, AZ 85719"]}, "phone": "+15208968888", "display_phone": "(520) 896-8888", "distance": 2805.3269880292314}, {"id": "FMLrzIBYlEB70KjwTMQMEw", "alias": "angry-crab-shack-and-bbq-tucson", "name": "Angry Crab Shack & BBQ", "image_url": "https://s3-media1.fl.yelpcdn.com/bphoto/wjPVzriy8by9XZLMIJxWoQ/o.jpg", "is_closed": false, "url": "https://www.yelp.com/biz/angry-crab-shack-and-bbq-tucson?adjust_creative=aS_rL-t7T-VBizbYoW5ToA&utm_campaign=yelp_api_v3&utm_medium=api_v3_business_search&utm_source=aS_rL-t7T-VBizbYoW5ToA", "review_count": 430, "categories": [{"alias": "seafood", "title": "Seafood"}, {"alias": "bbq", "title": "Barbeque"}, {"alias": "cajun", "title": "Cajun/Creole"}], "rating": 3.5, "coordinates": {"latitude": 32.24980006, "longitude": -110.99402113}, "transactions": ["delivery", "pickup"], "price": "$$", "location": {"address1": "1365 W Grant Rd", "address2": "", "address3": null, "city": "Tucson", "zip_code": "85745", "country": "US", "state": "AZ", "display_address": ["1365 W Grant Rd", "Tucson, AZ 85745"]}, "phone": "+15208497800", "display_phone": "(520) 849-7800", "distance": 5883.371373141915}, {"id": "muxda1cSVtplETqTfYVgZA", "alias": "hub-restaurant-and-ice-creamery-tucson", "name": "HUB Restaurant & Ice Creamery", "image_url": "https://s3-media3.fl.yelpcdn.com/bphoto/8nZGMwjWZJ515gopqGCtqg/o.jpg", "is_closed": false, "url": "https://www.yelp.com/biz/hub-restaurant-and-ice-creamery-tucson?adjust_creative=aS_rL-t7T-VBizbYoW5ToA&utm_campaign=yelp_api_v3&utm_medium=api_v3_business_search&utm_source=aS_rL-t7T-VBizbYoW5ToA", "review_count": 1362, "categories": [{"alias": "tradamerican", "title": "American (Traditional)"}, {"alias": "icecream", "title": "Ice Cream & Frozen Yogurt"}, {"alias": "bars", "title": "Bars"}], "rating": 4.0, "coordinates": {"latitude": 32.22185, "longitude": -110.96756}, "transactions": ["delivery", "pickup"], "price": "$$", "location": {"address1": "266 E Congress St", "address2": null, "address3": "", "city": "Tucson", "zip_code": "85701", "country": "US", "state": "AZ", "display_address": ["266 E Congress St", "Tucson, AZ 85701"]}, "phone": "+15202078201", "display_phone": "(520) 207-8201", "distance": 4261.1168000194575}, {"id": "kldw3rf8_T6J2LxsetQ5UA", "alias": "native-grill-and-wings-tucson", "name": "Native Grill & Wings", "image_url": "https://s3-media3.fl.yelpcdn.com/bphoto/trEohG_KAep8BAFYtWuqlA/o.jpg", "is_closed": false, "url": "https://www.yelp.com/biz/native-grill-and-wings-tucson?adjust_creative=aS_rL-t7T-VBizbYoW5ToA&utm_campaign=yelp_api_v3&utm_medium=api_v3_business_search&utm_source=aS_rL-t7T-VBizbYoW5ToA", "review_count": 237, "categories": [{"alias": "chicken_wings", "title": "Chicken Wings"}, {"alias": "newamerican", "title": "American (New)"}, {"alias": "sportsbars", "title": "Sports Bars"}], "rating": 2.5, "coordinates": {"latitude": 32.2357497851114, "longitude": -110.926602780819}, "transactions": ["delivery", "pickup"], "price": "$$", "location": {"address1": "3100 E Speedway Blvd", "address2": "", "address3": "", "city": "Tucson", "zip_code": "85716", "country": "US", "state": "AZ", "display_address": ["3100 E Speedway Blvd", "Tucson, AZ 85716"]}, "phone": "+15203253489", "display_phone": "(520) 325-3489", "distance": 1151.17591113295}, {"id": "L5au-8jxTj5WUhiYNCpnXg", "alias": "fork-and-fire-tucson-3", "name": "Fork & Fire", "image_url": "https://s3-media4.fl.yelpcdn.com/bphoto/9OthEW9uROpiLuH3kd3uVg/o.jpg", "is_closed": false, "url": "https://www.yelp.com/biz/fork-and-fire-tucson-3?adjust_creative=aS_rL-t7T-VBizbYoW5ToA&utm_campaign=yelp_api_v3&utm_medium=api_v3_business_search&utm_source=aS_rL-t7T-VBizbYoW5ToA", "review_count": 45, "categories": [{"alias": "foodtrucks", "title": "Food Trucks"}, {"alias": "bbq", "title": "Barbeque"}], "rating": 4.0, "coordinates": {"latitude": 32.4471015930176, "longitude": -110.980476379395}, "transactions": [], "location": {"address1": null, "address2": null, "address3": "", "city": "Tucson", "zip_code": "85755", "country": "US", "state": "AZ", "display_address": ["Tucson, AZ 85755"]}, "phone": "+15202226762", "display_phone": "(520) 222-6762", "distance": 24291.086139445393}, {"id": "7REv2fN0pqJISIzGgAW3dg", "alias": "bumsteds-tucson-3", "name": "Bumsted's", "image_url": "https://s3-media4.fl.yelpcdn.com/bphoto/IBWJ1A2R_LG0KEEsUws5gg/o.jpg", "is_closed": false, "url": "https://www.yelp.com/biz/bumsteds-tucson-3?adjust_creative=aS_rL-t7T-VBizbYoW5ToA&utm_campaign=yelp_api_v3&utm_medium=api_v3_business_search&utm_source=aS_rL-t7T-VBizbYoW5ToA", "review_count": 64, "categories": [{"alias": "bars", "title": "Bars"}, {"alias": "tradamerican", "title": "American (Traditional)"}], "rating": 4.5, "coordinates": {"latitude": 32.234564, "longitude": -110.972068}, "transactions": ["delivery", "pickup"], "location": {"address1": "1003 N Stone Ave", "address2": "", "address3": null, "city": "Tucson", "zip_code": "85705", "country": "US", "state": "AZ", "display_address": ["1003 N Stone Ave", "Tucson, AZ 85705"]}, "phone": "+15203231010", "display_phone": "(520) 323-1010", "distance": 3972.715801332015}, {"id": "ECUu-31E44hl7irKMx79Hg", "alias": "firetruck-brewing-company-tucson", "name": "Firetruck Brewing Company ", "image_url": "https://s3-media1.fl.yelpcdn.com/bphoto/YQntJU3xEfo5SxIOfyuQGQ/o.jpg", "is_closed": false, "url": "https://www.yelp.com/biz/firetruck-brewing-company-tucson?adjust_creative=aS_rL-t7T-VBizbYoW5ToA&utm_campaign=yelp_api_v3&utm_medium=api_v3_business_search&utm_source=aS_rL-t7T-VBizbYoW5ToA", "review_count": 52, "categories": [{"alias": "bars", "title": "Bars"}, {"alias": "tradamerican", "title": "American (Traditional)"}, {"alias": "breweries", "title": "Breweries"}], "rating": 3.5, "coordinates": {"latitude": 32.25825, "longitude": -110.79662}, "transactions": ["delivery", "pickup"], "price": "$$", "location": {"address1": "9155 E Tanque Verde Rd", "address2": "Ste 177", "address3": null, "city": "Tucson", "zip_code": "85749", "country": "US", "state": "AZ", "display_address": ["9155 E Tanque Verde Rd", "Ste 177", "Tucson, AZ 85749"]}, "phone": "+15207492299", "display_phone": "(520) 749-2299", "distance": 12787.4303269481}, {"id": "qAsPmtzmj3EAUjPSu-dqug", "alias": "the-depot-tucson", "name": "The Depot", "image_url": "https://s3-media1.fl.yelpcdn.com/bphoto/H_SvpPK5lJ0RLaJGptKsZA/o.jpg", "is_closed": false, "url": "https://www.yelp.com/biz/the-depot-tucson?adjust_creative=aS_rL-t7T-VBizbYoW5ToA&utm_campaign=yelp_api_v3&utm_medium=api_v3_business_search&utm_source=aS_rL-t7T-VBizbYoW5ToA", "review_count": 86, "categories": [{"alias": "poolhalls", "title": "Pool Halls"}, {"alias": "sportsbars", "title": "Sports Bars"}, {"alias": "karaoke", "title": "Karaoke"}], "rating": 3.5, "coordinates": {"latitude": 32.26546, "longitude": -110.91767}, "transactions": [], "price": "$$", "location": {"address1": "3501 E Fort Lowell Rd", "address2": "", "address3": "", "city": "Tucson", "zip_code": "85716", "country": "US", "state": "AZ", "display_address": ["3501 E Fort Lowell Rd", "Tucson, AZ 85716"]}, "phone": "+15207958110", "display_phone": "(520) 795-8110", "distance": 2622.5315428276135}, {"id": "-1MhPXk1FglglUAmuPLIGg", "alias": "red-garter-saloon-tucson", "name": "Red Garter Saloon", "image_url": "https://s3-media3.fl.yelpcdn.com/bphoto/JdeYR-SMKgEPWK29j58shA/o.jpg", "is_closed": false, "url": "https://www.yelp.com/biz/red-garter-saloon-tucson?adjust_creative=aS_rL-t7T-VBizbYoW5ToA&utm_campaign=yelp_api_v3&utm_medium=api_v3_business_search&utm_source=aS_rL-t7T-VBizbYoW5ToA", "review_count": 121, "categories": [{"alias": "sportsbars", "title": "Sports Bars"}, {"alias": "soup", "title": "Soup"}, {"alias": "burgers", "title": "Burgers"}], "rating": 4.0, "coordinates": {"latitude": 32.23644, "longitude": -110.92521}, "transactions": ["delivery"], "price": "$", "location": {"address1": "3143 E Speedway Blvd", "address2": "", "address3": "", "city": "Tucson", "zip_code": "85716", "country": "US", "state": "AZ", "display_address": ["3143 E Speedway Blvd", "Tucson, AZ 85716"]}, "phone": "+15203250483", "display_phone": "(520) 325-0483", "distance": 1153.2581233708638}, {"id": "qOw6FD59FvUMmkaTjVqS8Q", "alias": "tucson-food-truck-roundup-tucson", "name": "Tucson Food Truck Roundup", "image_url": "https://s3-media2.fl.yelpcdn.com/bphoto/rF2MEYd3NqO9KWb6X48O_g/o.jpg", "is_closed": false, "url": "https://www.yelp.com/biz/tucson-food-truck-roundup-tucson?adjust_creative=aS_rL-t7T-VBizbYoW5ToA&utm_campaign=yelp_api_v3&utm_medium=api_v3_business_search&utm_source=aS_rL-t7T-VBizbYoW5ToA", "review_count": 33, "categories": [{"alias": "foodtrucks", "title": "Food Trucks"}], "rating": 4.5, "coordinates": {"latitude": 32.227398, "longitude": -110.973701}, "transactions": [], "price": "$", "location": {"address1": "101 W 6th St", "address2": "", "address3": "", "city": "Tucson", "zip_code": "85701", "country": "US", "state": "AZ", "display_address": ["101 W 6th St", "Tucson, AZ 85701"]}, "phone": "+15208693166", "display_phone": "(520) 869-3166", "distance": 4408.459141699788}, {"id": "EmBa8UWYRwM_3hagkqwtIg", "alias": "saguaro-corners-restaurant-and-bar-tucson", "name": "Saguaro Corners Restaurant & Bar", "image_url": "https://s3-media4.fl.yelpcdn.com/bphoto/2dcp9ONIg-qANULAbBWz9g/o.jpg", "is_closed": false, "url": "https://www.yelp.com/biz/saguaro-corners-restaurant-and-bar-tucson?adjust_creative=aS_rL-t7T-VBizbYoW5ToA&utm_campaign=yelp_api_v3&utm_medium=api_v3_business_search&utm_source=aS_rL-t7T-VBizbYoW5ToA", "review_count": 564, "categories": [{"alias": "bars", "title": "Bars"}, {"alias": "comfortfood", "title": "Comfort Food"}, {"alias": "tradamerican", "title": "American (Traditional)"}], "rating": 4.0, "coordinates": {"latitude": 32.17771, "longitude": -110.7386}, "transactions": ["pickup", "delivery"], "price": "$$", "location": {"address1": "3750 S Old Spanish Trl", "address2": "", "address3": "", "city": "Tucson", "zip_code": "85730", "country": "US", "state": "AZ", "display_address": ["3750 S Old Spanish Trl", "Tucson, AZ 85730"]}, "phone": "+15208862020", "display_phone": "(520) 886-2020", "distance": 19654.437758121974}, {"id": "0Xm1wedwnMJ1iKXz8vUDSw", "alias": "the-canyons-crown-tucson", "name": "The Canyon's Crown", "image_url": "https://s3-media2.fl.yelpcdn.com/bphoto/XYajEvkAQw5JtWBWJB8oGg/o.jpg", "is_closed": false, "url": "https://www.yelp.com/biz/the-canyons-crown-tucson?adjust_creative=aS_rL-t7T-VBizbYoW5ToA&utm_campaign=yelp_api_v3&utm_medium=api_v3_business_search&utm_source=aS_rL-t7T-VBizbYoW5ToA", "review_count": 323, "categories": [{"alias": "pubs", "title": "Pubs"}, {"alias": "fishnchips", "title": "Fish & Chips"}, {"alias": "sportsbars", "title": "Sports Bars"}], "rating": 4.0, "coordinates": {"latitude": 32.2501831502106, "longitude": -110.84328532219}, "transactions": ["delivery"], "price": "$$", "location": {"address1": "6958 E Tanque Verde Rd", "address2": "", "address3": "", "city": "Tucson", "zip_code": "85715", "country": "US", "state": "AZ", "display_address": ["6958 E Tanque Verde Rd", "Tucson, AZ 85715"]}, "phone": "+15208858277", "display_phone": "(520) 885-8277", "distance": 8333.660537844959}, {"id": "Lhhf1jJPmpZSJjGvXabXag", "alias": "barros-pizza-tucson-2", "name": "Barro's Pizza", "image_url": "https://s3-media3.fl.yelpcdn.com/bphoto/u3CpnNRTpuwUhjfoP90Maw/o.jpg", "is_closed": false, "url": "https://www.yelp.com/biz/barros-pizza-tucson-2?adjust_creative=aS_rL-t7T-VBizbYoW5ToA&utm_campaign=yelp_api_v3&utm_medium=api_v3_business_search&utm_source=aS_rL-t7T-VBizbYoW5ToA", "review_count": 94, "categories": [{"alias": "pizza", "title": "Pizza"}, {"alias": "chicken_wings", "title": "Chicken Wings"}, {"alias": "sandwiches", "title": "Sandwiches"}], "rating": 4.0, "coordinates": {"latitude": 32.2261910979498, "longitude": -110.85732059813}, "transactions": ["delivery"], "location": {"address1": "410 N Wilmot Rd", "address2": "", "address3": null, "city": "Tucson", "zip_code": "85711", "country": "US", "state": "AZ", "display_address": ["410 N Wilmot Rd", "Tucson, AZ 85711"]}, "phone": "+15202960616", "display_phone": "(520) 296-0616", "distance": 7307.035421426759}, {"id": "pqHCY2NE8_aVl0EsDRbUtg", "alias": "famous-daves-bar-b-que-tucson", "name": "Famous Dave's Bar-B-Que", "image_url": "https://s3-media1.fl.yelpcdn.com/bphoto/u8tUcw_8VfiKoGad_jQvBQ/o.jpg", "is_closed": false, "url": "https://www.yelp.com/biz/famous-daves-bar-b-que-tucson?adjust_creative=aS_rL-t7T-VBizbYoW5ToA&utm_campaign=yelp_api_v3&utm_medium=api_v3_business_search&utm_source=aS_rL-t7T-VBizbYoW5ToA", "review_count": 202, "categories": [{"alias": "bbq", "title": "Barbeque"}, {"alias": "comfortfood", "title": "Comfort Food"}, {"alias": "tradamerican", "title": "American (Traditional)"}], "rating": 3.0, "coordinates": {"latitude": 32.2365006015451, "longitude": -110.9278679}, "transactions": ["pickup", "delivery"], "price": "$$", "location": {"address1": "3007 East Speedway Blvd", "address2": "", "address3": "", "city": "Tucson", "zip_code": "85716", "country": "US", "state": "AZ", "display_address": ["3007 East Speedway Blvd", "Tucson, AZ 85716"]}, "phone": "+15208881512", "display_phone": "(520) 888-1512", "distance": 1028.333373534964}, {"id": "aq26RY75PlTNsviW6wUC9A", "alias": "hooters-tucson-6", "name": "Hooters", "image_url": "https://s3-media3.fl.yelpcdn.com/bphoto/0p-XQ_-Iv-Zs6l5TpS-wpQ/o.jpg", "is_closed": false, "url": "https://www.yelp.com/biz/hooters-tucson-6?adjust_creative=aS_rL-t7T-VBizbYoW5ToA&utm_campaign=yelp_api_v3&utm_medium=api_v3_business_search&utm_source=aS_rL-t7T-VBizbYoW5ToA", "review_count": 114, "categories": [{"alias": "tradamerican", "title": "American (Traditional)"}, {"alias": "sportsbars", "title": "Sports Bars"}], "rating": 3.5, "coordinates": {"latitude": 32.2205997635462, "longitude": -110.837971474891}, "transactions": ["delivery"], "price": "$$", "location": {"address1": "7280 E Broadway Blvd", "address2": "", "address3": null, "city": "Tucson", "zip_code": "85710", "country": "US", "state": "AZ", "display_address": ["7280 E Broadway Blvd", "Tucson, AZ 85710"]}, "phone": "+15203520343", "display_phone": "(520) 352-0343", "distance": 9229.447666173864}, {"id": "hoFiVWRR4t1wiEMq4FXWfA", "alias": "mamas-hawaiian-bbq-tucson-3", "name": "Mamas Hawaiian BBQ", "image_url": "https://s3-media3.fl.yelpcdn.com/bphoto/ukNZl9wO5XD4JHKypibH3w/o.jpg", "is_closed": false, "url": "https://www.yelp.com/biz/mamas-hawaiian-bbq-tucson-3?adjust_creative=aS_rL-t7T-VBizbYoW5ToA&utm_campaign=yelp_api_v3&utm_medium=api_v3_business_search&utm_source=aS_rL-t7T-VBizbYoW5ToA", "review_count": 173, "categories": [{"alias": "bbq", "title": "Barbeque"}, {"alias": "hawaiian", "title": "Hawaiian"}], "rating": 3.0, "coordinates": {"latitude": 32.24258, "longitude": -110.857109}, "transactions": ["pickup", "delivery"], "price": "$$", "location": {"address1": "6310 E Tanque Verde Rd", "address2": "Ste 120", "address3": "", "city": "Tucson", "zip_code": "85715", "country": "US", "state": "AZ", "display_address": ["6310 E Tanque Verde Rd", "Ste 120", "Tucson, AZ 85715"]}, "phone": "+15207707800", "display_phone": "(520) 770-7800", "distance": 7021.077610412243}, {"id": "vOhHc9nR2S6ptKFV1OvtYg", "alias": "wings-over-broadway-tucson-4", "name": "Wings Over Broadway", "image_url": "https://s3-media2.fl.yelpcdn.com/bphoto/1adnDscZe3Rx_skJFr586Q/o.jpg", "is_closed": false, "url": "https://www.yelp.com/biz/wings-over-broadway-tucson-4?adjust_creative=aS_rL-t7T-VBizbYoW5ToA&utm_campaign=yelp_api_v3&utm_medium=api_v3_business_search&utm_source=aS_rL-t7T-VBizbYoW5ToA", "review_count": 98, "categories": [{"alias": "chicken_wings", "title": "Chicken Wings"}, {"alias": "tradamerican", "title": "American (Traditional)"}], "rating": 3.0, "coordinates": {"latitude": 32.21988492928556, "longitude": -110.8038008429559}, "transactions": [], "price": "$$", "location": {"address1": "8838 E Broadway Blvd", "address2": "", "address3": null, "city": "Tucson", "zip_code": "85710", "country": "US", "state": "AZ", "display_address": ["8838 E Broadway Blvd", "Tucson, AZ 85710"]}, "phone": "+15202075883", "display_phone": "(520) 207-5883", "distance": 12354.13799407717}, {"id": "E2uAzmg3tDenxiZa15E5IQ", "alias": "daisy-maes-steakhouse-tucson", "name": "Daisy Mae's Steakhouse", "image_url": "https://s3-media2.fl.yelpcdn.com/bphoto/hkbhY3b-DHTRjEhYvttm2g/o.jpg", "is_closed": false, "url": "https://www.yelp.com/biz/daisy-maes-steakhouse-tucson?adjust_creative=aS_rL-t7T-VBizbYoW5ToA&utm_campaign=yelp_api_v3&utm_medium=api_v3_business_search&utm_source=aS_rL-t7T-VBizbYoW5ToA", "review_count": 383, "categories": [{"alias": "steak", "title": "Steakhouses"}, {"alias": "bars", "title": "Bars"}], "rating": 4.0, "coordinates": {"latitude": 32.224613, "longitude": -111.025362}, "transactions": ["pickup", "delivery"], "price": "$$", "location": {"address1": "2735 W Anklam Rd", "address2": "", "address3": "", "city": "Tucson", "zip_code": "85745", "country": "US", "state": "AZ", "display_address": ["2735 W Anklam Rd", "Tucson, AZ 85745"]}, "phone": "+15207928888", "display_phone": "(520) 792-8888", "distance": 9100.828421008184}, {"id": "PtgpBXbgBiBwEbaGHqjY3A", "alias": "buffalo-wild-wings-tucson-3", "name": "Buffalo Wild Wings", "image_url": "https://s3-media1.fl.yelpcdn.com/bphoto/TsH4WfvFdzru94ZR4IBpbQ/o.jpg", "is_closed": false, "url": "https://www.yelp.com/biz/buffalo-wild-wings-tucson-3?adjust_creative=aS_rL-t7T-VBizbYoW5ToA&utm_campaign=yelp_api_v3&utm_medium=api_v3_business_search&utm_source=aS_rL-t7T-VBizbYoW5ToA", "review_count": 226, "categories": [{"alias": "chicken_wings", "title": "Chicken Wings"}, {"alias": "tradamerican", "title": "American (Traditional)"}, {"alias": "sportsbars", "title": "Sports Bars"}], "rating": 2.0, "coordinates": {"latitude": 32.2852739, "longitude": -110.9788384}, "transactions": ["pickup", "delivery"], "price": "$$", "location": {"address1": "4329 N Oracle Rd", "address2": "Ste 135", "address3": "", "city": "Tucson", "zip_code": "85705", "country": "US", "state": "AZ", "display_address": ["4329 N Oracle Rd", "Ste 135", "Tucson, AZ 85705"]}, "phone": "+15208883184", "display_phone": "(520) 888-3184", "distance": 6287.84454829549}, {"id": "WSx9-iYYyST_umny9sJBFg", "alias": "the-parish-tucson", "name": "The Parish", "image_url": "https://s3-media3.fl.yelpcdn.com/bphoto/At6VU7r-JNZ81gDhMo7Lkg/o.jpg", "is_closed": false, "url": "https://www.yelp.com/biz/the-parish-tucson?adjust_creative=aS_rL-t7T-VBizbYoW5ToA&utm_campaign=yelp_api_v3&utm_medium=api_v3_business_search&utm_source=aS_rL-t7T-VBizbYoW5ToA", "review_count": 1428, "categories": [{"alias": "gastropubs", "title": "Gastropubs"}, {"alias": "southern", "title": "Southern"}, {"alias": "cajun", "title": "Cajun/Creole"}], "rating": 4.5, "coordinates": {"latitude": 32.3245, "longitude": -110.97597}, "transactions": ["pickup", "delivery"], "price": "$$", "location": {"address1": "6453 N Oracle Rd", "address2": "", "address3": "", "city": "Tucson", "zip_code": "85704", "country": "US", "state": "AZ", "display_address": ["6453 N Oracle Rd", "Tucson, AZ 85704"]}, "phone": "+15207971233", "display_phone": "(520) 797-1233", "distance": 9756.911972791344}, {"id": "oHGPTi_BMJGOuAQqhOa0Qw", "alias": "crispys-fish-n-chips-tucson", "name": "Crispy's Fish-n-Chips", "image_url": "https://s3-media2.fl.yelpcdn.com/bphoto/bsVpGn7h5nw91ay8F5OPyQ/o.jpg", "is_closed": false, "url": "https://www.yelp.com/biz/crispys-fish-n-chips-tucson?adjust_creative=aS_rL-t7T-VBizbYoW5ToA&utm_campaign=yelp_api_v3&utm_medium=api_v3_business_search&utm_source=aS_rL-t7T-VBizbYoW5ToA", "review_count": 171, "categories": [{"alias": "fishnchips", "title": "Fish & Chips"}, {"alias": "chicken_wings", "title": "Chicken Wings"}, {"alias": "mexican", "title": "Mexican"}], "rating": 3.5, "coordinates": {"latitude": 32.26434, "longitude": -110.96}, "transactions": ["pickup", "delivery"], "price": "$", "location": {"address1": "736 E Fort Lowell Rd", "address2": "", "address3": "", "city": "Tucson", "zip_code": "85719", "country": "US", "state": "AZ", "display_address": ["736 E Fort Lowell Rd", "Tucson, AZ 85719"]}, "phone": "+15206225111", "display_phone": "(520) 622-5111", "distance": 3410.7783560481503}, {"id": "EIKbEHnsVg6dcsWopW4lkg", "alias": "lindys-on-4th-tucson", "name": "Lindy's On 4th", "image_url": "https://s3-media2.fl.yelpcdn.com/bphoto/21A1y2VlLKkniEvVsESe6w/o.jpg", "is_closed": false, "url": "https://www.yelp.com/biz/lindys-on-4th-tucson?adjust_creative=aS_rL-t7T-VBizbYoW5ToA&utm_campaign=yelp_api_v3&utm_medium=api_v3_business_search&utm_source=aS_rL-t7T-VBizbYoW5ToA", "review_count": 613, "categories": [{"alias": "burgers", "title": "Burgers"}, {"alias": "diners", "title": "Diners"}, {"alias": "tradamerican", "title": "American (Traditional)"}], "rating": 4.0, "coordinates": {"latitude": 32.228073, "longitude": -110.965406}, "transactions": ["pickup", "delivery"], "price": "$$", "location": {"address1": "500 N 4th Ave", "address2": "", "address3": "", "city": "Tucson", "zip_code": "85705", "country": "US", "state": "AZ", "display_address": ["500 N 4th Ave", "Tucson, AZ 85705"]}, "phone": "+15202076970", "display_phone": "(520) 207-6970", "distance": 3695.909419603866}, {"id": "eTCDxZd5QUj2kBrBMbnbTQ", "alias": "little-anthonys-diner-tucson", "name": "Little Anthony's Diner", "image_url": "https://s3-media2.fl.yelpcdn.com/bphoto/LFD3dnhvkLluOwMz20-PuA/o.jpg", "is_closed": false, "url": "https://www.yelp.com/biz/little-anthonys-diner-tucson?adjust_creative=aS_rL-t7T-VBizbYoW5ToA&utm_campaign=yelp_api_v3&utm_medium=api_v3_business_search&utm_source=aS_rL-t7T-VBizbYoW5ToA", "review_count": 388, "categories": [{"alias": "diners", "title": "Diners"}, {"alias": "tradamerican", "title": "American (Traditional)"}], "rating": 4.0, "coordinates": {"latitude": 32.22022, "longitude": -110.84332}, "transactions": ["delivery"], "price": "$$", "location": {"address1": "7010 E Broadway Blvd", "address2": "", "address3": "", "city": "Tucson", "zip_code": "85710", "country": "US", "state": "AZ", "display_address": ["7010 E Broadway Blvd", "Tucson, AZ 85710"]}, "phone": "+15202960456", "display_phone": "(520) 296-0456", "distance": 8775.02225099506}, {"id": "bllbgSuMIYLHux27cnH3vA", "alias": "the-views-restaurant-oro-valley", "name": "The Views Restaurant", "image_url": "https://s3-media4.fl.yelpcdn.com/bphoto/iR4xPe-DuGRUgzuca_7sFg/o.jpg", "is_closed": false, "url": "https://www.yelp.com/biz/the-views-restaurant-oro-valley?adjust_creative=aS_rL-t7T-VBizbYoW5ToA&utm_campaign=yelp_api_v3&utm_medium=api_v3_business_search&utm_source=aS_rL-t7T-VBizbYoW5ToA", "review_count": 87, "categories": [{"alias": "tradamerican", "title": "American (Traditional)"}, {"alias": "breakfast_brunch", "title": "Breakfast & Brunch"}, {"alias": "lounges", "title": "Lounges"}], "rating": 4.0, "coordinates": {"latitude": 32.462581393233, "longitude": -110.948115786369}, "transactions": [], "price": "$$", "location": {"address1": "1555 E Rancho Vistoso Blvd", "address2": null, "address3": "", "city": "Oro Valley", "zip_code": "85755", "country": "US", "state": "AZ", "display_address": ["1555 E Rancho Vistoso Blvd", "Oro Valley, AZ 85755"]}, "phone": "+15208253277", "display_phone": "(520) 825-3277", "distance": 24225.075798105805}, {"id": "OgilsqqoshPEsPYdx7GIzg", "alias": "bzs-pizza-and-italian-kitchen-tucson", "name": "BZ's Pizza and Italian Kitchen", "image_url": "https://s3-media3.fl.yelpcdn.com/bphoto/h26rdJ3FwAx9rPGWx13z2w/o.jpg", "is_closed": false, "url": "https://www.yelp.com/biz/bzs-pizza-and-italian-kitchen-tucson?adjust_creative=aS_rL-t7T-VBizbYoW5ToA&utm_campaign=yelp_api_v3&utm_medium=api_v3_business_search&utm_source=aS_rL-t7T-VBizbYoW5ToA", "review_count": 160, "categories": [{"alias": "pizza", "title": "Pizza"}, {"alias": "beerbar", "title": "Beer Bar"}, {"alias": "chicken_wings", "title": "Chicken Wings"}], "rating": 4.0, "coordinates": {"latitude": 32.24957, "longitude": -110.82569}, "transactions": ["delivery"], "price": "$$", "location": {"address1": "7856 E Wrightstown Rd", "address2": "", "address3": "", "city": "Tucson", "zip_code": "85715", "country": "US", "state": "AZ", "display_address": ["7856 E Wrightstown Rd", "Tucson, AZ 85715"]}, "phone": "+15205461402", "display_phone": "(520) 546-1402", "distance": 10071.248441845391}, {"id": "8NBb4aIeQvDh3OWRiIXYIA", "alias": "trident-grill-ii-tucson", "name": "Trident Grill II", "image_url": "https://s3-media1.fl.yelpcdn.com/bphoto/poUBTRYEhYNX60KfFscm9Q/o.jpg", "is_closed": false, "url": "https://www.yelp.com/biz/trident-grill-ii-tucson?adjust_creative=aS_rL-t7T-VBizbYoW5ToA&utm_campaign=yelp_api_v3&utm_medium=api_v3_business_search&utm_source=aS_rL-t7T-VBizbYoW5ToA", "review_count": 263, "categories": [{"alias": "seafood", "title": "Seafood"}, {"alias": "sportsbars", "title": "Sports Bars"}, {"alias": "tradamerican", "title": "American (Traditional)"}], "rating": 4.0, "coordinates": {"latitude": 32.260320361722876, "longitude": -110.89227127985224}, "transactions": ["delivery"], "price": "$$", "location": {"address1": "2910 N Swan Rd", "address2": "", "address3": "", "city": "Tucson", "zip_code": "85712", "country": "US", "state": "AZ", "display_address": ["2910 N Swan Rd", "Tucson, AZ 85712"]}, "phone": "+15203964455", "display_phone": "(520) 396-4455", "distance": 4073.086413707145}, {"id": "s1kYjopE0lDCe6Di9Kzv5Q", "alias": "nan-tian-bbq-tucson", "name": "Nan Tian BBQ", "image_url": "https://s3-media3.fl.yelpcdn.com/bphoto/EwtmZJYdBsO_13mE4sKChQ/o.jpg", "is_closed": false, "url": "https://www.yelp.com/biz/nan-tian-bbq-tucson?adjust_creative=aS_rL-t7T-VBizbYoW5ToA&utm_campaign=yelp_api_v3&utm_medium=api_v3_business_search&utm_source=aS_rL-t7T-VBizbYoW5ToA", "review_count": 24, "categories": [{"alias": "chinese", "title": "Chinese"}, {"alias": "bbq", "title": "Barbeque"}], "rating": 3.5, "coordinates": {"latitude": 32.3241, "longitude": -111.01015}, "transactions": ["delivery"], "price": "$", "location": {"address1": "1980 W Orange Grove Rd", "address2": "", "address3": "", "city": "Tucson", "zip_code": "85704", "country": "US", "state": "AZ", "display_address": ["1980 W Orange Grove Rd", "Tucson, AZ 85704"]}, "phone": "", "display_phone": "", "distance": 11451.941361877036}, {"id": "sMouNa5qpwZ-xG4t6TyFDA", "alias": "tinys-saloon-and-steakhouse-tucson", "name": "Tiny's Saloon & Steakhouse", "image_url": "https://s3-media2.fl.yelpcdn.com/bphoto/TlOuCe9x_v9Cm3R5-zCzvA/o.jpg", "is_closed": false, "url": "https://www.yelp.com/biz/tinys-saloon-and-steakhouse-tucson?adjust_creative=aS_rL-t7T-VBizbYoW5ToA&utm_campaign=yelp_api_v3&utm_medium=api_v3_business_search&utm_source=aS_rL-t7T-VBizbYoW5ToA", "review_count": 124, "categories": [{"alias": "divebars", "title": "Dive Bars"}, {"alias": "tradamerican", "title": "American (Traditional)"}, {"alias": "chicken_wings", "title": "Chicken Wings"}], "rating": 3.5, "coordinates": {"latitude": 32.17233, "longitude": -111.07017}, "transactions": ["delivery"], "price": "$$", "location": {"address1": "4900 W Ajo Hwy", "address2": "", "address3": "", "city": "Tucson", "zip_code": "85746", "country": "US", "state": "AZ", "display_address": ["4900 W Ajo Hwy", "Tucson, AZ 85746"]}, "phone": "+15205787700", "display_phone": "(520) 578-7700", "distance": 15343.131865737307}, {"id": "EBfiJ_YqFij5rKbzyJC9tw", "alias": "blackjack-pizza-tucson-9", "name": "Blackjack Pizza", "image_url": "https://s3-media3.fl.yelpcdn.com/bphoto/YV9IyXtIuOZZa5hP7W_mXg/o.jpg", "is_closed": false, "url": "https://www.yelp.com/biz/blackjack-pizza-tucson-9?adjust_creative=aS_rL-t7T-VBizbYoW5ToA&utm_campaign=yelp_api_v3&utm_medium=api_v3_business_search&utm_source=aS_rL-t7T-VBizbYoW5ToA", "review_count": 102, "categories": [{"alias": "pizza", "title": "Pizza"}, {"alias": "salad", "title": "Salad"}, {"alias": "chicken_wings", "title": "Chicken Wings"}], "rating": 3.5, "coordinates": {"latitude": 32.2522955, "longitude": -110.9443767}, "transactions": ["pickup", "delivery"], "price": "$", "location": {"address1": "2505 N Campbell", "address2": null, "address3": null, "city": "Tucson", "zip_code": "85719", "country": "US", "state": "AZ", "display_address": ["2505 N Campbell", "Tucson, AZ 85719"]}, "phone": "+15203252121", "display_phone": "(520) 325-2121", "distance": 1431.814041730106}, {"id": "2h0D_jeKy81uZgpZGZmGPA", "alias": "mamas-hawaiian-bar-b-cue-tucson-10", "name": "Mama's Hawaiian Bar-B-Cue", "image_url": "https://s3-media2.fl.yelpcdn.com/bphoto/rKjDV6FJ46lEupABYsoVfA/o.jpg", "is_closed": false, "url": "https://www.yelp.com/biz/mamas-hawaiian-bar-b-cue-tucson-10?adjust_creative=aS_rL-t7T-VBizbYoW5ToA&utm_campaign=yelp_api_v3&utm_medium=api_v3_business_search&utm_source=aS_rL-t7T-VBizbYoW5ToA", "review_count": 292, "categories": [{"alias": "hawaiian", "title": "Hawaiian"}, {"alias": "bbq", "title": "Barbeque"}], "rating": 3.0, "coordinates": {"latitude": 32.2798889, "longitude": -110.9609551}, "transactions": ["pickup", "delivery"], "price": "$", "location": {"address1": "4016 N 1st Ave", "address2": "Ste 100", "address3": "", "city": "Tucson", "zip_code": "85719", "country": "US", "state": "AZ", "display_address": ["4016 N 1st Ave", "Ste 100", "Tucson, AZ 85719"]}, "phone": "+15207926290", "display_phone": "(520) 792-6290", "distance": 4681.079139284605}, {"id": "-xxPdDMPm80ogHx_hgishw", "alias": "wings-and-rice-tucson", "name": "Wings & Rice", "image_url": "https://s3-media2.fl.yelpcdn.com/bphoto/YZDZKosYqnNgGXVs5fEO4A/o.jpg", "is_closed": false, "url": "https://www.yelp.com/biz/wings-and-rice-tucson?adjust_creative=aS_rL-t7T-VBizbYoW5ToA&utm_campaign=yelp_api_v3&utm_medium=api_v3_business_search&utm_source=aS_rL-t7T-VBizbYoW5ToA", "review_count": 243, "categories": [{"alias": "chicken_wings", "title": "Chicken Wings"}, {"alias": "korean", "title": "Korean"}, {"alias": "cheesesteaks", "title": "Cheesesteaks"}], "rating": 4.0, "coordinates": {"latitude": 32.24311, "longitude": -110.87511}, "transactions": ["delivery"], "price": "$$", "location": {"address1": "5502 E Pima St", "address2": "", "address3": "", "city": "Tucson", "zip_code": "85712", "country": "US", "state": "AZ", "display_address": ["5502 E Pima St", "Tucson, AZ 85712"]}, "phone": "+15207313313", "display_phone": "(520) 731-3313", "distance": 5319.941272920829}, {"id": "t6gAgrvNQDHHvyhBXUDFrQ", "alias": "caytons-restaurant-marana", "name": "Cayton's Restaurant", "image_url": "https://s3-media4.fl.yelpcdn.com/bphoto/ZBDbTlAJ_KbRipCktf6MGA/o.jpg", "is_closed": false, "url": "https://www.yelp.com/biz/caytons-restaurant-marana?adjust_creative=aS_rL-t7T-VBizbYoW5ToA&utm_campaign=yelp_api_v3&utm_medium=api_v3_business_search&utm_source=aS_rL-t7T-VBizbYoW5ToA", "review_count": 108, "categories": [{"alias": "newamerican", "title": "American (New)"}, {"alias": "burgers", "title": "Burgers"}, {"alias": "southern", "title": "Southern"}], "rating": 4.0, "coordinates": {"latitude": 32.470968, "longitude": -111.104025}, "transactions": [], "price": "$$", "location": {"address1": "15000 N Secret Springs Dr", "address2": "", "address3": "", "city": "Marana", "zip_code": "85658", "country": "US", "state": "AZ", "display_address": ["15000 N Secret Springs Dr", "Marana, AZ 85658"]}, "phone": "+15205723000", "display_phone": "(520) 572-3000", "distance": 29873.48482222273}, {"id": "RSrBPqSze2HJkx5DZsm7FA", "alias": "mulligans-tucson-2", "name": "Mulligans", "image_url": "https://s3-media4.fl.yelpcdn.com/bphoto/HvpnVLe3kJ8vBmG4gFtMjA/o.jpg", "is_closed": false, "url": "https://www.yelp.com/biz/mulligans-tucson-2?adjust_creative=aS_rL-t7T-VBizbYoW5ToA&utm_campaign=yelp_api_v3&utm_medium=api_v3_business_search&utm_source=aS_rL-t7T-VBizbYoW5ToA", "review_count": 100, "categories": [{"alias": "sportsbars", "title": "Sports Bars"}, {"alias": "chicken_wings", "title": "Chicken Wings"}, {"alias": "newamerican", "title": "American (New)"}], "rating": 3.5, "coordinates": {"latitude": 32.1921730041504, "longitude": -110.791191101074}, "transactions": ["delivery"], "price": "$$", "location": {"address1": "9403 E Golf Links Rd", "address2": null, "address3": null, "city": "Tucson", "zip_code": "85730", "country": "US", "state": "AZ", "display_address": ["9403 E Golf Links Rd", "Tucson, AZ 85730"]}, "phone": "+15207335661", "display_phone": "(520) 733-5661", "distance": 14466.739669854433}, {"id": "mLjIVDt9o2Zaohx0VYVfPA", "alias": "buffalo-wild-wings-tucson", "name": "Buffalo Wild Wings", "image_url": "https://s3-media3.fl.yelpcdn.com/bphoto/EP4OOOve-RY1I1GWv5VYAg/o.jpg", "is_closed": false, "url": "https://www.yelp.com/biz/buffalo-wild-wings-tucson?adjust_creative=aS_rL-t7T-VBizbYoW5ToA&utm_campaign=yelp_api_v3&utm_medium=api_v3_business_search&utm_source=aS_rL-t7T-VBizbYoW5ToA", "review_count": 210, "categories": [{"alias": "tradamerican", "title": "American (Traditional)"}, {"alias": "chicken_wings", "title": "Chicken Wings"}, {"alias": "sportsbars", "title": "Sports Bars"}], "rating": 2.5, "coordinates": {"latitude": 32.222514, "longitude": -110.788609}, "transactions": ["pickup", "delivery"], "price": "$$", "location": {"address1": "68 North Harrison Rd", "address2": "", "address3": "", "city": "Tucson", "zip_code": "85748", "country": "US", "state": "AZ", "display_address": ["68 North Harrison Rd", "Tucson, AZ 85748"]}, "phone": "+15202968409", "display_phone": "(520) 296-8409", "distance": 13692.474735434145}, {"id": "pabMCjMKIJOkM2qadvx6Yg", "alias": "longhorn-steakhouse-tucson-7", "name": "LongHorn Steakhouse", "image_url": "https://s3-media4.fl.yelpcdn.com/bphoto/FecBScAuDlnUF89aGrHWKQ/o.jpg", "is_closed": false, "url": "https://www.yelp.com/biz/longhorn-steakhouse-tucson-7?adjust_creative=aS_rL-t7T-VBizbYoW5ToA&utm_campaign=yelp_api_v3&utm_medium=api_v3_business_search&utm_source=aS_rL-t7T-VBizbYoW5ToA", "review_count": 156, "categories": [{"alias": "steak", "title": "Steakhouses"}, {"alias": "bbq", "title": "Barbeque"}, {"alias": "tradamerican", "title": "American (Traditional)"}], "rating": 3.5, "coordinates": {"latitude": 32.2872171134631, "longitude": -110.97882897248293}, "transactions": ["delivery"], "price": "$$", "location": {"address1": "4421 N Oracle Rd", "address2": null, "address3": null, "city": "Tucson", "zip_code": "85705", "country": "US", "state": "AZ", "display_address": ["4421 N Oracle Rd", "Tucson, AZ 85705"]}, "phone": "+15202937942", "display_phone": "(520) 293-7942", "distance": 6442.275722895448}, {"id": "grR8jimV3N4EtCN9l5Jq1Q", "alias": "house-of-bards-tucson", "name": "House of Bards", "image_url": "https://s3-media3.fl.yelpcdn.com/bphoto/qzTH76a7EiVbmhRDAK_qmA/o.jpg", "is_closed": false, "url": "https://www.yelp.com/biz/house-of-bards-tucson?adjust_creative=aS_rL-t7T-VBizbYoW5ToA&utm_campaign=yelp_api_v3&utm_medium=api_v3_business_search&utm_source=aS_rL-t7T-VBizbYoW5ToA", "review_count": 25, "categories": [{"alias": "musicvenues", "title": "Music Venues"}, {"alias": "salad", "title": "Salad"}, {"alias": "chicken_wings", "title": "Chicken Wings"}], "rating": 2.5, "coordinates": {"latitude": 32.2367599, "longitude": -110.88783}, "transactions": ["delivery"], "price": "$", "location": {"address1": "4915 E Speedway Blvd", "address2": "", "address3": null, "city": "Tucson", "zip_code": "85712", "country": "US", "state": "AZ", "display_address": ["4915 E Speedway Blvd", "Tucson, AZ 85712"]}, "phone": "+15203272011", "display_phone": "(520) 327-2011", "distance": 4239.292750423998}, {"id": "urWi4bSRI9Bfg3AFXECE9g", "alias": "ibts-tucson", "name": "IBT's", "image_url": "https://s3-media3.fl.yelpcdn.com/bphoto/muQ4Ud7FuTYKlF230ETT8w/o.jpg", "is_closed": false, "url": "https://www.yelp.com/biz/ibts-tucson?adjust_creative=aS_rL-t7T-VBizbYoW5ToA&utm_campaign=yelp_api_v3&utm_medium=api_v3_business_search&utm_source=aS_rL-t7T-VBizbYoW5ToA", "review_count": 90, "categories": [{"alias": "gaybars", "title": "Gay Bars"}, {"alias": "tradamerican", "title": "American (Traditional)"}], "rating": 3.0, "coordinates": {"latitude": 32.2295191, "longitude": -110.9654929}, "transactions": ["delivery"], "price": "$", "location": {"address1": "616 N 4th Ave", "address2": "", "address3": "", "city": "Tucson", "zip_code": "85705", "country": "US", "state": "AZ", "display_address": ["616 N 4th Ave", "Tucson, AZ 85705"]}, "phone": "+15208823053", "display_phone": "(520) 882-3053", "distance": 3623.015783087626}, {"id": "G1EanzvwOGLx_J-IwxnwtQ", "alias": "the-frozen-cactus-tucson", "name": "The Frozen Cactus", "image_url": "https://s3-media1.fl.yelpcdn.com/bphoto/SgTY_X7Q88ERJrMqvrVH1Q/o.jpg", "is_closed": false, "url": "https://www.yelp.com/biz/the-frozen-cactus-tucson?adjust_creative=aS_rL-t7T-VBizbYoW5ToA&utm_campaign=yelp_api_v3&utm_medium=api_v3_business_search&utm_source=aS_rL-t7T-VBizbYoW5ToA", "review_count": 37, "categories": [{"alias": "sportsbars", "title": "Sports Bars"}], "rating": 3.0, "coordinates": {"latitude": 32.23649, "longitude": -110.8691}, "transactions": ["pickup", "delivery"], "location": {"address1": "5769 E Speedway Blvd", "address2": "", "address3": null, "city": "Tucson", "zip_code": "85712", "country": "US", "state": "AZ", "display_address": ["5769 E Speedway Blvd", "Tucson, AZ 85712"]}, "phone": "+15204955136", "display_phone": "(520) 495-5136", "distance": 5958.457638304718}, {"id": "CJe2beFHYTOG0-0-dqAIrg", "alias": "native-grill-and-wings-tucson-4", "name": "Native Grill & Wings", "image_url": "https://s3-media2.fl.yelpcdn.com/bphoto/hj9ckZPSrAgISd_I7NL5_A/o.jpg", "is_closed": false, "url": "https://www.yelp.com/biz/native-grill-and-wings-tucson-4?adjust_creative=aS_rL-t7T-VBizbYoW5ToA&utm_campaign=yelp_api_v3&utm_medium=api_v3_business_search&utm_source=aS_rL-t7T-VBizbYoW5ToA", "review_count": 253, "categories": [{"alias": "newamerican", "title": "American (New)"}, {"alias": "sportsbars", "title": "Sports Bars"}, {"alias": "chicken_wings", "title": "Chicken Wings"}], "rating": 2.5, "coordinates": {"latitude": 32.0886077880859, "longitude": -110.773597717285}, "transactions": ["pickup", "delivery"], "price": "$$", "location": {"address1": "10255 E Old Vail Rd", "address2": null, "address3": null, "city": "Tucson", "zip_code": "85747", "country": "US", "state": "AZ", "display_address": ["10255 E Old Vail Rd", "Tucson, AZ 85747"]}, "phone": "+15208228394", "display_phone": "(520) 822-8394", "distance": 22902.26882536675}, {"id": "yvBDnfgVQy_hCDGj3Hy00w", "alias": "brushfire-bbq-tucson-2", "name": "BrushFire BBQ", "image_url": "https://s3-media4.fl.yelpcdn.com/bphoto/f7QOf9c396d4I7Zl9-HFDg/o.jpg", "is_closed": false, "url": "https://www.yelp.com/biz/brushfire-bbq-tucson-2?adjust_creative=aS_rL-t7T-VBizbYoW5ToA&utm_campaign=yelp_api_v3&utm_medium=api_v3_business_search&utm_source=aS_rL-t7T-VBizbYoW5ToA", "review_count": 322, "categories": [{"alias": "bbq", "title": "Barbeque"}, {"alias": "beerbar", "title": "Beer Bar"}], "rating": 3.0, "coordinates": {"latitude": 32.204616, "longitude": -110.841553}, "transactions": ["pickup", "delivery"], "price": "$$", "location": {"address1": "7080 E 22nd St", "address2": "", "address3": "", "city": "Tucson", "zip_code": "85710", "country": "US", "state": "AZ", "display_address": ["7080 E 22nd St", "Tucson, AZ 85710"]}, "phone": "+15208676050", "display_phone": "(520) 867-6050", "distance": 9601.962124368034}, {"id": "n3RLMOsTmgetUZqKnXi7OQ", "alias": "native-grill-and-wings-tucson-3", "name": "Native Grill & Wings", "image_url": "https://s3-media2.fl.yelpcdn.com/bphoto/oiyCEK6pxWYjjj0RfkmNhg/o.jpg", "is_closed": false, "url": "https://www.yelp.com/biz/native-grill-and-wings-tucson-3?adjust_creative=aS_rL-t7T-VBizbYoW5ToA&utm_campaign=yelp_api_v3&utm_medium=api_v3_business_search&utm_source=aS_rL-t7T-VBizbYoW5ToA", "review_count": 130, "categories": [{"alias": "chicken_wings", "title": "Chicken Wings"}, {"alias": "sportsbars", "title": "Sports Bars"}, {"alias": "newamerican", "title": "American (New)"}], "rating": 2.5, "coordinates": {"latitude": 32.152987520911, "longitude": -110.990127201223}, "transactions": ["pickup", "delivery"], "price": "$$", "location": {"address1": "5421 S Calle Santa Cruz", "address2": "", "address3": "", "city": "Tucson", "zip_code": "85706", "country": "US", "state": "AZ", "display_address": ["5421 S Calle Santa Cruz", "Tucson, AZ 85706"]}, "phone": "+15208895198", "display_phone": "(520) 889-5198", "distance": 11630.539060888355}, {"id": "yJZbNhVoTdhcI9dYVzLJuQ", "alias": "playground-bar-and-lounge-tucson-2", "name": "Playground Bar & Lounge", "image_url": "https://s3-media2.fl.yelpcdn.com/bphoto/N47XbQkOclBVC7_9c8Eybg/o.jpg", "is_closed": false, "url": "https://www.yelp.com/biz/playground-bar-and-lounge-tucson-2?adjust_creative=aS_rL-t7T-VBizbYoW5ToA&utm_campaign=yelp_api_v3&utm_medium=api_v3_business_search&utm_source=aS_rL-t7T-VBizbYoW5ToA", "review_count": 204, "categories": [{"alias": "lounges", "title": "Lounges"}, {"alias": "venues", "title": "Venues & Event Spaces"}, {"alias": "sportsbars", "title": "Sports Bars"}], "rating": 3.5, "coordinates": {"latitude": 32.221923, "longitude": -110.967281}, "transactions": ["delivery"], "price": "$$", "location": {"address1": "278 E Congress St", "address2": "", "address3": "", "city": "Tucson", "zip_code": "85701", "country": "US", "state": "AZ", "display_address": ["278 E Congress St", "Tucson, AZ 85701"]}, "phone": "+15203963691", "display_phone": "(520) 396-3691", "distance": 4228.022189362351}, {"id": "lS1dmSXpAtQqT04eRm9kiA", "alias": "no-anchovies-tucson", "name": "No Anchovies", "image_url": "https://s3-media2.fl.yelpcdn.com/bphoto/srdaw8vxZiLcPx3a-voXIA/o.jpg", "is_closed": false, "url": "https://www.yelp.com/biz/no-anchovies-tucson?adjust_creative=aS_rL-t7T-VBizbYoW5ToA&utm_campaign=yelp_api_v3&utm_medium=api_v3_business_search&utm_source=aS_rL-t7T-VBizbYoW5ToA", "review_count": 291, "categories": [{"alias": "pizza", "title": "Pizza"}, {"alias": "salad", "title": "Salad"}, {"alias": "chicken_wings", "title": "Chicken Wings"}], "rating": 3.5, "coordinates": {"latitude": 32.2313, "longitude": -110.95847}, "transactions": ["pickup", "delivery"], "price": "$$", "location": {"address1": "870 E University Blvd", "address2": "", "address3": "", "city": "Tucson", "zip_code": "85719", "country": "US", "state": "AZ", "display_address": ["870 E University Blvd", "Tucson, AZ 85719"]}, "phone": "+15206233333", "display_phone": "(520) 623-3333", "distance": 2943.214313220533}, {"id": "c7EvqF6PiwPwdDJF734Q0A", "alias": "firetruck-brewing-tucson-2", "name": "Firetruck Brewing", "image_url": "https://s3-media1.fl.yelpcdn.com/bphoto/Ag1R_ReyVjFoSCDhJm2s1A/o.jpg", "is_closed": false, "url": "https://www.yelp.com/biz/firetruck-brewing-tucson-2?adjust_creative=aS_rL-t7T-VBizbYoW5ToA&utm_campaign=yelp_api_v3&utm_medium=api_v3_business_search&utm_source=aS_rL-t7T-VBizbYoW5ToA", "review_count": 53, "categories": [{"alias": "brewpubs", "title": "Brewpubs"}, {"alias": "cocktailbars", "title": "Cocktail Bars"}], "rating": 3.0, "coordinates": {"latitude": 32.249416, "longitude": -110.891206}, "transactions": ["pickup", "delivery"], "price": "$$", "location": {"address1": "4746 E Grant Rd", "address2": "", "address3": null, "city": "Tucson", "zip_code": "85712", "country": "US", "state": "AZ", "display_address": ["4746 E Grant Rd", "Tucson, AZ 85712"]}, "phone": "+15207779456", "display_phone": "(520) 777-9456", "distance": 3837.617928468819}, {"id": "z0RrXXMvLyncxFmtxegK1Q", "alias": "bob-dobbs-tucson", "name": "Bob Dobbs", "image_url": "https://s3-media1.fl.yelpcdn.com/bphoto/IhEd7tc9Tv_0ow_nXIjn1Q/o.jpg", "is_closed": false, "url": "https://www.yelp.com/biz/bob-dobbs-tucson?adjust_creative=aS_rL-t7T-VBizbYoW5ToA&utm_campaign=yelp_api_v3&utm_medium=api_v3_business_search&utm_source=aS_rL-t7T-VBizbYoW5ToA", "review_count": 131, "categories": [{"alias": "bars", "title": "Bars"}, {"alias": "burgers", "title": "Burgers"}, {"alias": "tradamerican", "title": "American (Traditional)"}], "rating": 3.5, "coordinates": {"latitude": 32.2281048, "longitude": -110.935187}, "transactions": ["pickup", "delivery"], "price": "$", "location": {"address1": "2501 E 6th St", "address2": null, "address3": "", "city": "Tucson", "zip_code": "85716", "country": "US", "state": "AZ", "display_address": ["2501 E 6th St", "Tucson, AZ 85716"]}, "phone": "+15203253767", "display_phone": "(520) 325-3767", "distance": 1924.7388947773145}, {"id": "R3ZhCvJjhegRWi-9c9pD8A", "alias": "salud-tucson-3", "name": "Salud", "image_url": "https://s3-media3.fl.yelpcdn.com/bphoto/Y_pV83EsHbiET1V19qPH4A/o.jpg", "is_closed": false, "url": "https://www.yelp.com/biz/salud-tucson-3?adjust_creative=aS_rL-t7T-VBizbYoW5ToA&utm_campaign=yelp_api_v3&utm_medium=api_v3_business_search&utm_source=aS_rL-t7T-VBizbYoW5ToA", "review_count": 31, "categories": [{"alias": "bars", "title": "Bars"}, {"alias": "tradamerican", "title": "American (Traditional)"}], "rating": 3.0, "coordinates": {"latitude": 32.2159294, "longitude": -111.0501752}, "transactions": ["delivery"], "price": "$$", "location": {"address1": "3800 W Starr Pass Blvd", "address2": "", "address3": "", "city": "Tucson", "zip_code": "85745", "country": "US", "state": "AZ", "display_address": ["3800 W Starr Pass Blvd", "Tucson, AZ 85745"]}, "phone": "+15207916015", "display_phone": "(520) 791-6015", "distance": 11608.081449373953}, {"id": "WQ0Hn0QaJZpygRyr3ALWSg", "alias": "the-grill-at-hacienda-del-sol-tucson-5", "name": "The Grill at Hacienda Del Sol", "image_url": "https://s3-media3.fl.yelpcdn.com/bphoto/h-2t-ATnGpRrMKN6U4hjBw/o.jpg", "is_closed": false, "url": "https://www.yelp.com/biz/the-grill-at-hacienda-del-sol-tucson-5?adjust_creative=aS_rL-t7T-VBizbYoW5ToA&utm_campaign=yelp_api_v3&utm_medium=api_v3_business_search&utm_source=aS_rL-t7T-VBizbYoW5ToA", "review_count": 364, "categories": [{"alias": "wine_bars", "title": "Wine Bars"}, {"alias": "tradamerican", "title": "American (Traditional)"}, {"alias": "breakfast_brunch", "title": "Breakfast & Brunch"}], "rating": 3.5, "coordinates": {"latitude": 32.3080802589668, "longitude": -110.914478751343}, "transactions": ["delivery"], "price": "$$$", "location": {"address1": "5501 N Hacienda Del Sol Rd", "address2": "", "address3": "", "city": "Tucson", "zip_code": "85718", "country": "US", "state": "AZ", "display_address": ["5501 N Hacienda Del Sol Rd", "Tucson, AZ 85718"]}, "phone": "+15205293500", "display_phone": "(520) 529-3500", "distance": 7181.160909741294}, {"id": "tqUrMr12JE4_QfM_qZjOeg", "alias": "peter-piper-pizza-tucson-7", "name": "Peter Piper Pizza", "image_url": "https://s3-media1.fl.yelpcdn.com/bphoto/MA5F26gABwmGjSj8_LvVyA/o.jpg", "is_closed": false, "url": "https://www.yelp.com/biz/peter-piper-pizza-tucson-7?adjust_creative=aS_rL-t7T-VBizbYoW5ToA&utm_campaign=yelp_api_v3&utm_medium=api_v3_business_search&utm_source=aS_rL-t7T-VBizbYoW5ToA", "review_count": 13, "categories": [{"alias": "pizza", "title": "Pizza"}, {"alias": "chicken_wings", "title": "Chicken Wings"}, {"alias": "buffets", "title": "Buffets"}], "rating": 3.5, "coordinates": {"latitude": 32.179605, "longitude": -110.9769386}, "transactions": [], "price": "$", "location": {"address1": "3717 S 12th Ave", "address2": "", "address3": "", "city": "Tucson", "zip_code": "85713", "country": "US", "state": "AZ", "display_address": ["3717 S 12th Ave", "Tucson, AZ 85713"]}, "phone": "+15206241111", "display_phone": "(520) 624-1111", "distance": 8440.96261682692}, {"id": "wnWQK_ITkFG8jCZXskKbqQ", "alias": "papa-johns-pizza-tucson-12", "name": "Papa Johns Pizza", "image_url": "https://s3-media4.fl.yelpcdn.com/bphoto/ndOJDQJdDNpzsMP_1uo_iw/o.jpg", "is_closed": false, "url": "https://www.yelp.com/biz/papa-johns-pizza-tucson-12?adjust_creative=aS_rL-t7T-VBizbYoW5ToA&utm_campaign=yelp_api_v3&utm_medium=api_v3_business_search&utm_source=aS_rL-t7T-VBizbYoW5ToA", "review_count": 13, "categories": [{"alias": "pizza", "title": "Pizza"}, {"alias": "chicken_wings", "title": "Chicken Wings"}, {"alias": "hotdogs", "title": "Fast Food"}], "rating": 3.0, "coordinates": {"latitude": 32.2671479, "longitude": -110.8938073}, "transactions": ["pickup", "delivery"], "price": "$", "location": {"address1": "3305 N Swan Rd", "address2": "B-107", "address3": "", "city": "Tucson", "zip_code": "85712", "country": "US", "state": "AZ", "display_address": ["3305 N Swan Rd", "B-107", "Tucson, AZ 85712"]}, "phone": "+15202993232", "display_phone": "(520) 299-3232", "distance": 4321.39743954082}, {"id": "pu_9yoGDdDVn_QWjZhBkfg", "alias": "dominos-pizza-tucson-12", "name": "Domino's Pizza", "image_url": "https://s3-media4.fl.yelpcdn.com/bphoto/3FQwA36dn48OJeOpg6MoGw/o.jpg", "is_closed": false, "url": "https://www.yelp.com/biz/dominos-pizza-tucson-12?adjust_creative=aS_rL-t7T-VBizbYoW5ToA&utm_campaign=yelp_api_v3&utm_medium=api_v3_business_search&utm_source=aS_rL-t7T-VBizbYoW5ToA", "review_count": 26, "categories": [{"alias": "pizza", "title": "Pizza"}, {"alias": "chicken_wings", "title": "Chicken Wings"}, {"alias": "sandwiches", "title": "Sandwiches"}], "rating": 2.5, "coordinates": {"latitude": 32.23633, "longitude": -110.95772}, "transactions": ["delivery"], "price": "$", "location": {"address1": "901 E Speedway Blvd", "address2": "", "address3": "", "city": "Tucson", "zip_code": "85719", "country": "US", "state": "AZ", "display_address": ["901 E Speedway Blvd", "Tucson, AZ 85719"]}, "phone": "+15207925000", "display_phone": "(520) 792-5000", "distance": 2642.539081013125}, {"id": "5yjHCLzwHgjKNNHgAaUC8Q", "alias": "buffalo-wild-wings-tucson-2", "name": "Buffalo Wild Wings", "image_url": "https://s3-media2.fl.yelpcdn.com/bphoto/lis9u2q8Ui1II8YDDBMGAw/o.jpg", "is_closed": false, "url": "https://www.yelp.com/biz/buffalo-wild-wings-tucson-2?adjust_creative=aS_rL-t7T-VBizbYoW5ToA&utm_campaign=yelp_api_v3&utm_medium=api_v3_business_search&utm_source=aS_rL-t7T-VBizbYoW5ToA", "review_count": 155, "categories": [{"alias": "chicken_wings", "title": "Chicken Wings"}, {"alias": "sportsbars", "title": "Sports Bars"}, {"alias": "tradamerican", "title": "American (Traditional)"}], "rating": 2.0, "coordinates": {"latitude": 32.1637246708649, "longitude": -110.994393}, "transactions": ["pickup", "delivery"], "price": "$$", "location": {"address1": "1390 West Irvington Rd", "address2": "", "address3": "", "city": "Tucson", "zip_code": "85746", "country": "US", "state": "AZ", "display_address": ["1390 West Irvington Rd", "Tucson, AZ 85746"]}, "phone": "+15207999464", "display_phone": "(520) 799-9464", "distance": 10807.012571147498}, {"id": "3swM60bulnut1d4AZti80Q", "alias": "rockabilly-grill-tucson", "name": "Rockabilly Grill", "image_url": "https://s3-media1.fl.yelpcdn.com/bphoto/ru2g2N1fGlpxT4kn3ME2Yg/o.jpg", "is_closed": false, "url": "https://www.yelp.com/biz/rockabilly-grill-tucson?adjust_creative=aS_rL-t7T-VBizbYoW5ToA&utm_campaign=yelp_api_v3&utm_medium=api_v3_business_search&utm_source=aS_rL-t7T-VBizbYoW5ToA", "review_count": 46, "categories": [{"alias": "sportsbars", "title": "Sports Bars"}, {"alias": "divebars", "title": "Dive Bars"}, {"alias": "musicvenues", "title": "Music Venues"}], "rating": 3.5, "coordinates": {"latitude": 32.27396, "longitude": -110.97726}, "transactions": ["delivery"], "price": "$", "location": {"address1": "3700 N Oracle Rd", "address2": "", "address3": "", "city": "Tucson", "zip_code": "85705", "country": "US", "state": "AZ", "display_address": ["3700 N Oracle Rd", "Tucson, AZ 85705"]}, "phone": "+15208881900", "display_phone": "(520) 888-1900", "distance": 5371.094027729079}, {"id": "xGJTG1BPinTTr-36l4jTUQ", "alias": "hops-sports-grill-tucson", "name": "Hops Sports Grill", "image_url": "https://s3-media2.fl.yelpcdn.com/bphoto/YAw2ZgFbZ9a2xOhYzVYZ4g/o.jpg", "is_closed": false, "url": "https://www.yelp.com/biz/hops-sports-grill-tucson?adjust_creative=aS_rL-t7T-VBizbYoW5ToA&utm_campaign=yelp_api_v3&utm_medium=api_v3_business_search&utm_source=aS_rL-t7T-VBizbYoW5ToA", "review_count": 150, "categories": [{"alias": "sportsbars", "title": "Sports Bars"}], "rating": 3.5, "coordinates": {"latitude": 32.21971, "longitude": -110.77393}, "transactions": ["delivery"], "price": "$$", "location": {"address1": "120 S Houghton Rd", "address2": "Unit 174", "address3": null, "city": "Tucson", "zip_code": "85748", "country": "US", "state": "AZ", "display_address": ["120 S Houghton Rd", "Unit 174", "Tucson, AZ 85748"]}, "phone": "+15203005898", "display_phone": "(520) 300-5898", "distance": 15107.24914499307}, {"id": "427weUnxju_Sbh4SabYdJw", "alias": "bubbs-grub-catalina", "name": "Bubb's Grub", "image_url": "https://s3-media4.fl.yelpcdn.com/bphoto/m_bxS0t0ymwtEZyPYgyLMg/o.jpg", "is_closed": false, "url": "https://www.yelp.com/biz/bubbs-grub-catalina?adjust_creative=aS_rL-t7T-VBizbYoW5ToA&utm_campaign=yelp_api_v3&utm_medium=api_v3_business_search&utm_source=aS_rL-t7T-VBizbYoW5ToA", "review_count": 215, "categories": [{"alias": "bbq", "title": "Barbeque"}], "rating": 3.5, "coordinates": {"latitude": 32.496434, "longitude": -110.925631}, "transactions": ["delivery"], "price": "$$", "location": {"address1": "16010 N Oracle Rd", "address2": "", "address3": "", "city": "Catalina", "zip_code": "85739", "country": "US", "state": "AZ", "display_address": ["16010 N Oracle Rd", "Catalina, AZ 85739"]}, "phone": "+15208256510", "display_phone": "(520) 825-6510", "distance": 27946.01089913224}, {"id": "BTblqXsOHMXjcgcYkdzuqg", "alias": "47-scott-tucson", "name": "47 Scott", "image_url": "https://s3-media1.fl.yelpcdn.com/bphoto/l7Iq6Wq13WYmBzB6Uwmilw/o.jpg", "is_closed": false, "url": "https://www.yelp.com/biz/47-scott-tucson?adjust_creative=aS_rL-t7T-VBizbYoW5ToA&utm_campaign=yelp_api_v3&utm_medium=api_v3_business_search&utm_source=aS_rL-t7T-VBizbYoW5ToA", "review_count": 457, "categories": [{"alias": "comfortfood", "title": "Comfort Food"}, {"alias": "tradamerican", "title": "American (Traditional)"}, {"alias": "cocktailbars", "title": "Cocktail Bars"}], "rating": 4.0, "coordinates": {"latitude": 32.22266, "longitude": -110.97013}, "transactions": ["delivery"], "price": "$$", "location": {"address1": "47 N Scott Ave", "address2": "", "address3": "", "city": "Tucson", "zip_code": "85701", "country": "US", "state": "AZ", "display_address": ["47 N Scott Ave", "Tucson, AZ 85701"]}, "phone": "+15206244747", "display_phone": "(520) 624-4747", "distance": 4398.712566252623}, {"id": "9C2rpb56aQvW0ViZHK9sPw", "alias": "home-plate-sports-pub-tucson-2", "name": "Home Plate Sports Pub", "image_url": "https://s3-media2.fl.yelpcdn.com/bphoto/wiZUWpFRvJ8PR02Fpu2sZQ/o.jpg", "is_closed": false, "url": "https://www.yelp.com/biz/home-plate-sports-pub-tucson-2?adjust_creative=aS_rL-t7T-VBizbYoW5ToA&utm_campaign=yelp_api_v3&utm_medium=api_v3_business_search&utm_source=aS_rL-t7T-VBizbYoW5ToA", "review_count": 59, "categories": [{"alias": "sportsbars", "title": "Sports Bars"}], "rating": 3.5, "coordinates": {"latitude": 32.206315, "longitude": -110.887843}, "transactions": [], "price": "$", "location": {"address1": "4880 E 22nd St", "address2": "", "address3": "", "city": "Tucson", "zip_code": "85711", "country": "US", "state": "AZ", "display_address": ["4880 E 22nd St", "Tucson, AZ 85711"]}, "phone": "+15207458265", "display_phone": "(520) 745-8265", "distance": 5973.17873261726}, {"id": "vI-2mPYOgfix5LcaqDOy_g", "alias": "longhorn-steakhouse-tucson-8", "name": "LongHorn Steakhouse", "image_url": "https://s3-media3.fl.yelpcdn.com/bphoto/Mh5xF5hdpozJ0MIWNsBuOA/o.jpg", "is_closed": false, "url": "https://www.yelp.com/biz/longhorn-steakhouse-tucson-8?adjust_creative=aS_rL-t7T-VBizbYoW5ToA&utm_campaign=yelp_api_v3&utm_medium=api_v3_business_search&utm_source=aS_rL-t7T-VBizbYoW5ToA", "review_count": 269, "categories": [{"alias": "tradamerican", "title": "American (Traditional)"}, {"alias": "steak", "title": "Steakhouses"}, {"alias": "bbq", "title": "Barbeque"}], "rating": 3.0, "coordinates": {"latitude": 32.22200880443844, "longitude": -110.87011570235408}, "transactions": ["delivery"], "price": "$$", "location": {"address1": "5725 E Broadway Blvd", "address2": "", "address3": "", "city": "Tucson", "zip_code": "85711", "country": "US", "state": "AZ", "display_address": ["5725 E Broadway Blvd", "Tucson, AZ 85711"]}, "phone": "+15207450391", "display_phone": "(520) 745-0391", "distance": 6338.9535490345215}, {"id": "5Z_KrsEQsPE0ibKwhYn3ZQ", "alias": "signature-grill-tucson", "name": "Signature Grill", "image_url": "https://s3-media4.fl.yelpcdn.com/bphoto/5bhdGJmOPkGBbpbEqX0cMA/o.jpg", "is_closed": false, "url": "https://www.yelp.com/biz/signature-grill-tucson?adjust_creative=aS_rL-t7T-VBizbYoW5ToA&utm_campaign=yelp_api_v3&utm_medium=api_v3_business_search&utm_source=aS_rL-t7T-VBizbYoW5ToA", "review_count": 115, "categories": [{"alias": "southern", "title": "Southern"}, {"alias": "beer_and_wine", "title": "Beer, Wine & Spirits"}], "rating": 3.5, "coordinates": {"latitude": 32.2155605527665, "longitude": -111.050748825073}, "transactions": ["delivery"], "price": "$$$", "location": {"address1": "3800 W Starr Pass Blvd", "address2": "", "address3": "", "city": "Tucson", "zip_code": "85745", "country": "US", "state": "AZ", "display_address": ["3800 W Starr Pass Blvd", "Tucson, AZ 85745"]}, "phone": "+15207916130", "display_phone": "(520) 791-6130", "distance": 11671.410118939513}, {"id": "mffEM30xMjB8peBzybyRaQ", "alias": "peter-pipers-pizza-tucson-2", "name": "Peter Pipers Pizza", "image_url": "https://s3-media3.fl.yelpcdn.com/bphoto/jhwqMkwadD_xIQuLuaN7Lw/o.jpg", "is_closed": false, "url": "https://www.yelp.com/biz/peter-pipers-pizza-tucson-2?adjust_creative=aS_rL-t7T-VBizbYoW5ToA&utm_campaign=yelp_api_v3&utm_medium=api_v3_business_search&utm_source=aS_rL-t7T-VBizbYoW5ToA", "review_count": 22, "categories": [{"alias": "pizza", "title": "Pizza"}, {"alias": "chicken_wings", "title": "Chicken Wings"}, {"alias": "buffets", "title": "Buffets"}], "rating": 2.5, "coordinates": {"latitude": 32.239187, "longitude": -111.005493}, "transactions": [], "price": "$", "location": {"address1": "1380 N Silverbell Rd", "address2": "", "address3": "", "city": "Tucson", "zip_code": "85745", "country": "US", "state": "AZ", "display_address": ["1380 N Silverbell Rd", "Tucson, AZ 85745"]}, "phone": "+15206247475", "display_phone": "(520) 624-7475", "distance": 6971.699665914489}, {"id": "N9EwHX1kwpnkiCfEOxJf2Q", "alias": "circle-s-saloon-marana", "name": "Circle S Saloon", "image_url": "https://s3-media3.fl.yelpcdn.com/bphoto/0ZB4vb760ZVTy-So9liHdA/o.jpg", "is_closed": false, "url": "https://www.yelp.com/biz/circle-s-saloon-marana?adjust_creative=aS_rL-t7T-VBizbYoW5ToA&utm_campaign=yelp_api_v3&utm_medium=api_v3_business_search&utm_source=aS_rL-t7T-VBizbYoW5ToA", "review_count": 49, "categories": [{"alias": "bars", "title": "Bars"}, {"alias": "tradamerican", "title": "American (Traditional)"}, {"alias": "mexican", "title": "Mexican"}], "rating": 4.0, "coordinates": {"latitude": 32.427713, "longitude": -111.309187}, "transactions": ["pickup"], "price": "$$", "location": {"address1": "16021 W. El Tiro Rd", "address2": "", "address3": "", "city": "Marana", "zip_code": "85653", "country": "US", "state": "AZ", "display_address": ["16021 W. El Tiro Rd", "Marana, AZ 85653"]}, "phone": "+15206825377", "display_phone": "(520) 682-5377", "distance": 40863.30374864539}, {"id": "gKRay6giNIWH2-u-7svQwg", "alias": "downtownr-tucson", "name": "Downtown'R", "image_url": "https://s3-media3.fl.yelpcdn.com/bphoto/Ts8qiAXXPbRVQuq88923Wg/o.jpg", "is_closed": false, "url": "https://www.yelp.com/biz/downtownr-tucson?adjust_creative=aS_rL-t7T-VBizbYoW5ToA&utm_campaign=yelp_api_v3&utm_medium=api_v3_business_search&utm_source=aS_rL-t7T-VBizbYoW5ToA", "review_count": 8, "categories": [{"alias": "sportsbars", "title": "Sports Bars"}, {"alias": "newamerican", "title": "American (New)"}, {"alias": "breakfast_brunch", "title": "Breakfast & Brunch"}], "rating": 3.0, "coordinates": {"latitude": 32.225749, "longitude": -110.979408}, "transactions": ["pickup", "delivery"], "location": {"address1": "475 N Granada", "address2": null, "address3": "Hotel Tucson City Center", "city": "Tucson", "zip_code": "85701", "country": "US", "state": "AZ", "display_address": ["475 N Granada", "Hotel Tucson City Center", "Tucson, AZ 85701"]}, "phone": "+15206223000", "display_phone": "(520) 622-3000", "distance": 4931.923209541839}, {"id": "EAZT4FpI9pLxbDXvL8Dthg", "alias": "wingstop-tucson-5", "name": "Wingstop", "image_url": "https://s3-media2.fl.yelpcdn.com/bphoto/DFsPlox-pR5BHOJaUfi5Fw/o.jpg", "is_closed": false, "url": "https://www.yelp.com/biz/wingstop-tucson-5?adjust_creative=aS_rL-t7T-VBizbYoW5ToA&utm_campaign=yelp_api_v3&utm_medium=api_v3_business_search&utm_source=aS_rL-t7T-VBizbYoW5ToA", "review_count": 83, "categories": [{"alias": "chicken_wings", "title": "Chicken Wings"}], "rating": 3.0, "coordinates": {"latitude": 32.220516204834, "longitude": -110.822402954102}, "transactions": [], "price": "$$", "location": {"address1": "7942 E Broadway Blvd", "address2": null, "address3": null, "city": "Tucson", "zip_code": "85710", "country": "US", "state": "AZ", "display_address": ["7942 E Broadway Blvd", "Tucson, AZ 85710"]}, "phone": "+15202969464", "display_phone": "(520) 296-9464", "distance": 10645.278989206281}, {"id": "PrQdHTaZItu54ZRictQBKw", "alias": "risky-business-tucson", "name": "Risky Business", "image_url": "https://s3-media2.fl.yelpcdn.com/bphoto/Iw57eL0XPqz_0o9pOBcCQw/o.jpg", "is_closed": false, "url": "https://www.yelp.com/biz/risky-business-tucson?adjust_creative=aS_rL-t7T-VBizbYoW5ToA&utm_campaign=yelp_api_v3&utm_medium=api_v3_business_search&utm_source=aS_rL-t7T-VBizbYoW5ToA", "review_count": 159, "categories": [{"alias": "tradamerican", "title": "American (Traditional)"}, {"alias": "sportsbars", "title": "Sports Bars"}], "rating": 3.5, "coordinates": {"latitude": 32.307912507597, "longitude": -110.84569749473}, "transactions": ["delivery"], "price": "$$", "location": {"address1": "6866 E Sunrise Dr", "address2": "", "address3": "", "city": "Tucson", "zip_code": "85750", "country": "US", "state": "AZ", "display_address": ["6866 E Sunrise Dr", "Tucson, AZ 85750"]}, "phone": "+15205770021", "display_phone": "(520) 577-0021", "distance": 10679.990545062627}, {"id": "quY_McgW57daeJYBXyp_yg", "alias": "smokin-hot-barbeque-tucson", "name": "Smokin' Hot Barbeque", "image_url": "https://s3-media3.fl.yelpcdn.com/bphoto/Q5vIUoMsC_fdEpI7KJcrAw/o.jpg", "is_closed": false, "url": "https://www.yelp.com/biz/smokin-hot-barbeque-tucson?adjust_creative=aS_rL-t7T-VBizbYoW5ToA&utm_campaign=yelp_api_v3&utm_medium=api_v3_business_search&utm_source=aS_rL-t7T-VBizbYoW5ToA", "review_count": 10, "categories": [{"alias": "foodtrucks", "title": "Food Trucks"}], "rating": 4.5, "coordinates": {"latitude": 32.21539, "longitude": -110.9701}, "transactions": [], "price": "$", "location": {"address1": "", "address2": "", "address3": "", "city": "Tucson", "zip_code": "85701", "country": "US", "state": "AZ", "display_address": ["Tucson, AZ 85701"]}, "phone": "+15202801906", "display_phone": "(520) 280-1906", "distance": 5043.476511923185}, {"id": "jhs-0QG_Nl_n9RIHcxi-OQ", "alias": "arizona-sands-club-tucson", "name": "Arizona Sands Club", "image_url": "https://s3-media2.fl.yelpcdn.com/bphoto/qta1vzPbQ5P3cKfszSyLCA/o.jpg", "is_closed": false, "url": "https://www.yelp.com/biz/arizona-sands-club-tucson?adjust_creative=aS_rL-t7T-VBizbYoW5ToA&utm_campaign=yelp_api_v3&utm_medium=api_v3_business_search&utm_source=aS_rL-t7T-VBizbYoW5ToA", "review_count": 6, "categories": [{"alias": "newamerican", "title": "American (New)"}], "rating": 3.0, "coordinates": {"latitude": 32.23017137377827, "longitude": -110.94607201147778}, "transactions": [], "location": {"address1": "1 National Championship Dr", "address2": null, "address3": null, "city": "Tucson", "zip_code": "85719", "country": "US", "state": "AZ", "display_address": ["1 National Championship Dr", "Tucson, AZ 85719"]}, "phone": "+19796762598", "display_phone": "(979) 676-2598", "distance": 2145.9435498260686}, {"id": "gJctImPPLma_aRICoi8ZKQ", "alias": "bianchis-italian-tucson", "name": "Bianchi's Italian", "image_url": "https://s3-media1.fl.yelpcdn.com/bphoto/8wAwEaRzNQxXA47Tjs4XjA/o.jpg", "is_closed": false, "url": "https://www.yelp.com/biz/bianchis-italian-tucson?adjust_creative=aS_rL-t7T-VBizbYoW5ToA&utm_campaign=yelp_api_v3&utm_medium=api_v3_business_search&utm_source=aS_rL-t7T-VBizbYoW5ToA", "review_count": 263, "categories": [{"alias": "pizza", "title": "Pizza"}, {"alias": "italian", "title": "Italian"}, {"alias": "sandwiches", "title": "Sandwiches"}], "rating": 3.0, "coordinates": {"latitude": 32.236327, "longitude": -111.004177}, "transactions": ["pickup", "delivery"], "price": "$$", "location": {"address1": "1110 N Silverbell Rd", "address2": "", "address3": "", "city": "Tucson", "zip_code": "85745", "country": "US", "state": "AZ", "display_address": ["1110 N Silverbell Rd", "Tucson, AZ 85745"]}, "phone": "+15208828500", "display_phone": "(520) 882-8500", "distance": 6886.7378572039215}, {"id": "fKXU_HMU09PJfTHjtInN0Q", "alias": "bjs-restaurant-and-brewhouse-tucson", "name": "BJ's Restaurant & Brewhouse", "image_url": "https://s3-media1.fl.yelpcdn.com/bphoto/KhkSQB8nSvU_8r85lvAQQA/o.jpg", "is_closed": false, "url": "https://www.yelp.com/biz/bjs-restaurant-and-brewhouse-tucson?adjust_creative=aS_rL-t7T-VBizbYoW5ToA&utm_campaign=yelp_api_v3&utm_medium=api_v3_business_search&utm_source=aS_rL-t7T-VBizbYoW5ToA", "review_count": 277, "categories": [{"alias": "pizza", "title": "Pizza"}, {"alias": "brewpubs", "title": "Brewpubs"}, {"alias": "tradamerican", "title": "American (Traditional)"}], "rating": 3.5, "coordinates": {"latitude": 32.284312438741416, "longitude": -110.97766045705914}, "transactions": ["pickup", "delivery"], "price": "$$", "location": {"address1": "4270 N Oracle Rd", "address2": "", "address3": "", "city": "Tucson", "zip_code": "85705", "country": "US", "state": "AZ", "display_address": ["4270 N Oracle Rd", "Tucson, AZ 85705"]}, "phone": "+15206901900", "display_phone": "(520) 690-1900", "distance": 6133.958326864522}, {"id": "ipeqBIxJlQ1090ZCvXF0wg", "alias": "papa-johns-pizza-tucson-4", "name": "Papa Johns Pizza", "image_url": "https://s3-media2.fl.yelpcdn.com/bphoto/QFeY-yQZhTYWQg3AbYlP_Q/o.jpg", "is_closed": false, "url": "https://www.yelp.com/biz/papa-johns-pizza-tucson-4?adjust_creative=aS_rL-t7T-VBizbYoW5ToA&utm_campaign=yelp_api_v3&utm_medium=api_v3_business_search&utm_source=aS_rL-t7T-VBizbYoW5ToA", "review_count": 23, "categories": [{"alias": "pizza", "title": "Pizza"}, {"alias": "chicken_wings", "title": "Chicken Wings"}, {"alias": "hotdogs", "title": "Fast Food"}], "rating": 2.0, "coordinates": {"latitude": 32.23652310805769, "longitude": -110.93409501387413}, "transactions": ["pickup", "delivery"], "price": "$", "location": {"address1": "2545 E Speedway Blvd", "address2": "Ste 165", "address3": "", "city": "Tucson", "zip_code": "85716", "country": "US", "state": "AZ", "display_address": ["2545 E Speedway Blvd", "Ste 165", "Tucson, AZ 85716"]}, "phone": "+15203257272", "display_phone": "(520) 325-7272", "distance": 986.5677666996355}, {"id": "HmOLnIE4itMlHNBxR7HYeg", "alias": "papa-johns-pizza-tucson-8", "name": "Papa Johns Pizza", "image_url": "https://s3-media4.fl.yelpcdn.com/bphoto/E01idpMbCovj_Nw0IL7XZA/o.jpg", "is_closed": false, "url": "https://www.yelp.com/biz/papa-johns-pizza-tucson-8?adjust_creative=aS_rL-t7T-VBizbYoW5ToA&utm_campaign=yelp_api_v3&utm_medium=api_v3_business_search&utm_source=aS_rL-t7T-VBizbYoW5ToA", "review_count": 10, "categories": [{"alias": "pizza", "title": "Pizza"}, {"alias": "chicken_wings", "title": "Chicken Wings"}, {"alias": "hotdogs", "title": "Fast Food"}], "rating": 4.0, "coordinates": {"latitude": 32.1343196, "longitude": -111.0001678}, "transactions": ["pickup", "delivery"], "price": "$", "location": {"address1": "1610 W Valencia Rd", "address2": null, "address3": null, "city": "Tucson", "zip_code": "85746", "country": "US", "state": "AZ", "display_address": ["1610 W Valencia Rd", "Tucson, AZ 85746"]}, "phone": "+15205733434", "display_phone": "(520) 573-3434", "distance": 13907.45000546202}, {"id": "WIw5377vGNKdZb2dLl2zfw", "alias": "famous-sams-tucson-6", "name": "Famous Sam's", "image_url": "https://s3-media4.fl.yelpcdn.com/bphoto/n7hxayhFM_84j-fu1cdyYQ/o.jpg", "is_closed": false, "url": "https://www.yelp.com/biz/famous-sams-tucson-6?adjust_creative=aS_rL-t7T-VBizbYoW5ToA&utm_campaign=yelp_api_v3&utm_medium=api_v3_business_search&utm_source=aS_rL-t7T-VBizbYoW5ToA", "review_count": 58, "categories": [{"alias": "sportsbars", "title": "Sports Bars"}, {"alias": "tradamerican", "title": "American (Traditional)"}, {"alias": "karaoke", "title": "Karaoke"}], "rating": 3.0, "coordinates": {"latitude": 32.3065716069423, "longitude": -111.009216332046}, "transactions": ["delivery"], "price": "$", "location": {"address1": "1970 W River Rd", "address2": "", "address3": "", "city": "Tucson", "zip_code": "85705", "country": "US", "state": "AZ", "display_address": ["1970 W River Rd", "Tucson, AZ 85705"]}, "phone": "+15202920492", "display_phone": "(520) 292-0492", "distance": 9986.741989357242}, {"id": "yl0yqngQGbW2hPmf5L427g", "alias": "rustys-family-restaurant-and-sports-grille-tucson-2", "name": "Rusty's Family Restaurant & Sports Grille", "image_url": "https://s3-media4.fl.yelpcdn.com/bphoto/LJF-fs9oS9bNaSeqIbC92Q/o.jpg", "is_closed": false, "url": "https://www.yelp.com/biz/rustys-family-restaurant-and-sports-grille-tucson-2?adjust_creative=aS_rL-t7T-VBizbYoW5ToA&utm_campaign=yelp_api_v3&utm_medium=api_v3_business_search&utm_source=aS_rL-t7T-VBizbYoW5ToA", "review_count": 123, "categories": [{"alias": "sportsbars", "title": "Sports Bars"}, {"alias": "tradamerican", "title": "American (Traditional)"}, {"alias": "italian", "title": "Italian"}], "rating": 3.5, "coordinates": {"latitude": 32.25026, "longitude": -111.0114}, "transactions": ["delivery"], "price": "$$", "location": {"address1": "2075 W Grant Rd", "address2": "", "address3": "", "city": "Tucson", "zip_code": "85745", "country": "US", "state": "AZ", "display_address": ["2075 W Grant Rd", "Tucson, AZ 85745"]}, "phone": "+15206233363", "display_phone": "(520) 623-3363", "distance": 7520.3425816019335}, {"id": "5p4p5DknrjuxIUDokYZE9w", "alias": "the-cheesecake-factory-tucson-tucson", "name": "The Cheesecake Factory", "image_url": "https://s3-media2.fl.yelpcdn.com/bphoto/aK8ZhUa-14RAOOMIYMvHLg/o.jpg", "is_closed": false, "url": "https://www.yelp.com/biz/the-cheesecake-factory-tucson-tucson?adjust_creative=aS_rL-t7T-VBizbYoW5ToA&utm_campaign=yelp_api_v3&utm_medium=api_v3_business_search&utm_source=aS_rL-t7T-VBizbYoW5ToA", "review_count": 547, "categories": [{"alias": "desserts", "title": "Desserts"}, {"alias": "tradamerican", "title": "American (Traditional)"}], "rating": 3.5, "coordinates": {"latitude": 32.2877607, "longitude": -110.9727843}, "transactions": ["restaurant_reservation", "delivery"], "price": "$$", "location": {"address1": "60 W Wetmore Rd", "address2": null, "address3": "Tucson Mall", "city": "Tucson", "zip_code": "85705", "country": "US", "state": "AZ", "display_address": ["60 W Wetmore Rd", "Tucson Mall", "Tucson, AZ 85705"]}, "phone": "+15204080033", "display_phone": "(520) 408-0033", "distance": 6112.123760357101}, {"id": "vPJ_ggSczt2vS6DUZ0B-Ag", "alias": "dickeys-barbecue-pit-tucson-5", "name": "Dickey's Barbecue Pit", "image_url": "https://s3-media3.fl.yelpcdn.com/bphoto/TLdMCrPun1Y8L7acNChbRg/o.jpg", "is_closed": false, "url": "https://www.yelp.com/biz/dickeys-barbecue-pit-tucson-5?adjust_creative=aS_rL-t7T-VBizbYoW5ToA&utm_campaign=yelp_api_v3&utm_medium=api_v3_business_search&utm_source=aS_rL-t7T-VBizbYoW5ToA", "review_count": 128, "categories": [{"alias": "bbq", "title": "Barbeque"}, {"alias": "tradamerican", "title": "American (Traditional)"}, {"alias": "chicken_wings", "title": "Chicken Wings"}], "rating": 2.5, "coordinates": {"latitude": 32.3354239138668, "longitude": -111.047323140472}, "transactions": ["pickup", "delivery"], "price": "$$", "location": {"address1": "7077 N Thornydale Rd", "address2": "", "address3": "", "city": "Tucson", "zip_code": "85741", "country": "US", "state": "AZ", "display_address": ["7077 N Thornydale Rd", "Tucson, AZ 85741"]}, "phone": "+15206388030", "display_phone": "(520) 638-8030", "distance": 14793.74766962305}, {"id": "gJAfdLAkzLS08cGNY12KDg", "alias": "texas-roadhouse-marana-2", "name": "Texas Roadhouse", "image_url": "https://s3-media1.fl.yelpcdn.com/bphoto/qijJ5RW7DGkxtNuXwsB9jg/o.jpg", "is_closed": false, "url": "https://www.yelp.com/biz/texas-roadhouse-marana-2?adjust_creative=aS_rL-t7T-VBizbYoW5ToA&utm_campaign=yelp_api_v3&utm_medium=api_v3_business_search&utm_source=aS_rL-t7T-VBizbYoW5ToA", "review_count": 238, "categories": [{"alias": "steak", "title": "Steakhouses"}, {"alias": "tradamerican", "title": "American (Traditional)"}, {"alias": "bbq", "title": "Barbeque"}], "rating": 3.5, "coordinates": {"latitude": 32.360725, "longitude": -111.09333}, "transactions": [], "price": "$$", "location": {"address1": "8450 N Cracker Barrel Rd", "address2": "", "address3": "", "city": "Marana", "zip_code": "85743", "country": "US", "state": "AZ", "display_address": ["8450 N Cracker Barrel Rd", "Marana, AZ 85743"]}, "phone": "+15205793855", "display_phone": "(520) 579-3855", "distance": 19896.799447802234}, {"id": "5ZUDiqevPIRvCjM6nj3kaw", "alias": "native-grill-and-wings-tucson-2", "name": "Native Grill & Wings", "image_url": "https://s3-media1.fl.yelpcdn.com/bphoto/vLWdyL8Yq4mSz6dEEufcIw/o.jpg", "is_closed": false, "url": "https://www.yelp.com/biz/native-grill-and-wings-tucson-2?adjust_creative=aS_rL-t7T-VBizbYoW5ToA&utm_campaign=yelp_api_v3&utm_medium=api_v3_business_search&utm_source=aS_rL-t7T-VBizbYoW5ToA", "review_count": 156, "categories": [{"alias": "newamerican", "title": "American (New)"}, {"alias": "chicken_wings", "title": "Chicken Wings"}, {"alias": "sportsbars", "title": "Sports Bars"}], "rating": 3.0, "coordinates": {"latitude": 32.35608757828735, "longitude": -111.0951973888381}, "transactions": ["pickup", "delivery"], "price": "$$", "location": {"address1": "8225 N Courtney Paige Way", "address2": "Ste 115", "address3": "", "city": "Tucson", "zip_code": "85743", "country": "US", "state": "AZ", "display_address": ["8225 N Courtney Paige Way", "Ste 115", "Tucson, AZ 85743"]}, "phone": "+15207447200", "display_phone": "(520) 744-7200", "distance": 19704.59749815234}, {"id": "MM2k7pm2noLwKFflOhO46Q", "alias": "black-bear-diner-tucson-tucson-3", "name": "Black Bear Diner - Tucson", "image_url": "https://s3-media2.fl.yelpcdn.com/bphoto/MG9MGFI_6eAtuO8ZHmazUQ/o.jpg", "is_closed": false, "url": "https://www.yelp.com/biz/black-bear-diner-tucson-tucson-3?adjust_creative=aS_rL-t7T-VBizbYoW5ToA&utm_campaign=yelp_api_v3&utm_medium=api_v3_business_search&utm_source=aS_rL-t7T-VBizbYoW5ToA", "review_count": 294, "categories": [{"alias": "diners", "title": "Diners"}, {"alias": "breakfast_brunch", "title": "Breakfast & Brunch"}, {"alias": "tradamerican", "title": "American (Traditional)"}], "rating": 3.5, "coordinates": {"latitude": 32.22192, "longitude": -110.86247}, "transactions": ["pickup", "delivery"], "price": "$$", "location": {"address1": "6095 E Broadway Blvd", "address2": null, "address3": null, "city": "Tucson", "zip_code": "85711", "country": "US", "state": "AZ", "display_address": ["6095 E Broadway Blvd", "Tucson, AZ 85711"]}, "phone": "+15207908881", "display_phone": "(520) 790-8881", "distance": 7001.59594641222}, {"id": "xHdekRjTK93GR2AgtvrtgQ", "alias": "growlers-taphouse-tucson", "name": "Growler's Taphouse", "image_url": "https://s3-media1.fl.yelpcdn.com/bphoto/Z99NPMf4DaTEsVz_13zuhQ/o.jpg", "is_closed": false, "url": "https://www.yelp.com/biz/growlers-taphouse-tucson?adjust_creative=aS_rL-t7T-VBizbYoW5ToA&utm_campaign=yelp_api_v3&utm_medium=api_v3_business_search&utm_source=aS_rL-t7T-VBizbYoW5ToA", "review_count": 167, "categories": [{"alias": "sportsbars", "title": "Sports Bars"}, {"alias": "newamerican", "title": "American (New)"}, {"alias": "musicvenues", "title": "Music Venues"}], "rating": 3.5, "coordinates": {"latitude": 32.3573574257608, "longitude": -111.114027958165}, "transactions": ["delivery"], "price": "$$", "location": {"address1": "8275 N Silverbell Rd", "address2": "", "address3": null, "city": "Tucson", "zip_code": "85743", "country": "US", "state": "AZ", "display_address": ["8275 N Silverbell Rd", "Tucson, AZ 85743"]}, "phone": "+15203898232", "display_phone": "(520) 389-8232", "distance": 21196.599335426035}, {"id": "jz_ju6uhi7_2T8IjCSk8dw", "alias": "charred-pie-oro-valley", "name": "Charred Pie", "image_url": "https://s3-media1.fl.yelpcdn.com/bphoto/5e9EfhcBPmsT7VJzjDcvyg/o.jpg", "is_closed": false, "url": "https://www.yelp.com/biz/charred-pie-oro-valley?adjust_creative=aS_rL-t7T-VBizbYoW5ToA&utm_campaign=yelp_api_v3&utm_medium=api_v3_business_search&utm_source=aS_rL-t7T-VBizbYoW5ToA", "review_count": 207, "categories": [{"alias": "pizza", "title": "Pizza"}], "rating": 4.0, "coordinates": {"latitude": 32.42559, "longitude": -110.93808}, "transactions": ["delivery"], "price": "$$", "location": {"address1": "12125 N Oracle Rd", "address2": "Ste 105", "address3": "", "city": "Oro Valley", "zip_code": "85737", "country": "US", "state": "AZ", "display_address": ["12125 N Oracle Rd", "Ste 105", "Oro Valley, AZ 85737"]}, "phone": "+15203952232", "display_phone": "(520) 395-2232", "distance": 20071.02457388667}, {"id": "SCPXVj5VXRvXWU6r8tDLRg", "alias": "topgolf-tucson", "name": "Topgolf", "image_url": "https://s3-media1.fl.yelpcdn.com/bphoto/MaY9XZAjXyl0ZNU8XKc9pw/o.jpg", "is_closed": false, "url": "https://www.yelp.com/biz/topgolf-tucson?adjust_creative=aS_rL-t7T-VBizbYoW5ToA&utm_campaign=yelp_api_v3&utm_medium=api_v3_business_search&utm_source=aS_rL-t7T-VBizbYoW5ToA", "review_count": 258, "categories": [{"alias": "newamerican", "title": "American (New)"}, {"alias": "golf", "title": "Golf"}, {"alias": "sportsbars", "title": "Sports Bars"}], "rating": 4.0, "coordinates": {"latitude": 32.32869553290174, "longitude": -111.05268272883609}, "transactions": [], "price": "$$", "location": {"address1": "4050 W Costco Pl", "address2": "", "address3": null, "city": "Tucson", "zip_code": "85741", "country": "US", "state": "AZ", "display_address": ["4050 W Costco Pl", "Tucson, AZ 85741"]}, "phone": "+15202845047", "display_phone": "(520) 284-5047", "distance": 14683.689512018005}, {"id": "gIIZQRP878_yceemj2bK_A", "alias": "hi-fi-kitchen-and-cocktails-tucson", "name": "HI FI Kitchen & Cocktails", "image_url": "https://s3-media4.fl.yelpcdn.com/bphoto/dTi91cRUsZvak8RHBSb12A/o.jpg", "is_closed": false, "url": "https://www.yelp.com/biz/hi-fi-kitchen-and-cocktails-tucson?adjust_creative=aS_rL-t7T-VBizbYoW5ToA&utm_campaign=yelp_api_v3&utm_medium=api_v3_business_search&utm_source=aS_rL-t7T-VBizbYoW5ToA", "review_count": 275, "categories": [{"alias": "newamerican", "title": "American (New)"}, {"alias": "danceclubs", "title": "Dance Clubs"}, {"alias": "sportsbars", "title": "Sports Bars"}], "rating": 2.5, "coordinates": {"latitude": 32.2219143, "longitude": -110.9653446}, "transactions": ["pickup", "delivery"], "price": "$$", "location": {"address1": "345 E Congress St", "address2": "", "address3": "", "city": "Tucson", "zip_code": "85701", "country": "US", "state": "AZ", "display_address": ["345 E Congress St", "Tucson, AZ 85701"]}, "phone": "+15202689110", "display_phone": "(520) 268-9110", "distance": 4085.9914780585505}, {"id": "HqPFoCfaL63O5S7AbcXckw", "alias": "home-plate-marana-tucson", "name": "Home Plate Marana", "image_url": "https://s3-media2.fl.yelpcdn.com/bphoto/y5JrN-nX2WsLJb-iwlWGUQ/o.jpg", "is_closed": false, "url": "https://www.yelp.com/biz/home-plate-marana-tucson?adjust_creative=aS_rL-t7T-VBizbYoW5ToA&utm_campaign=yelp_api_v3&utm_medium=api_v3_business_search&utm_source=aS_rL-t7T-VBizbYoW5ToA", "review_count": 105, "categories": [{"alias": "sportsbars", "title": "Sports Bars"}], "rating": 3.0, "coordinates": {"latitude": 32.36279296875, "longitude": -111.121025085449}, "transactions": ["delivery"], "price": "$$", "location": {"address1": "8579 N Silverbell Rd", "address2": "", "address3": "", "city": "Tucson", "zip_code": "85743", "country": "US", "state": "AZ", "display_address": ["8579 N Silverbell Rd", "Tucson, AZ 85743"]}, "phone": "+15207447744", "display_phone": "(520) 744-7744", "distance": 22083.657931879123}, {"id": "5tdGosWTJsdNUkO-TJqAAw", "alias": "button-brew-house-tucson", "name": "Button Brew House", "image_url": "https://s3-media3.fl.yelpcdn.com/bphoto/JtRNqGMu7MRZSP90f1a0pg/o.jpg", "is_closed": false, "url": "https://www.yelp.com/biz/button-brew-house-tucson?adjust_creative=aS_rL-t7T-VBizbYoW5ToA&utm_campaign=yelp_api_v3&utm_medium=api_v3_business_search&utm_source=aS_rL-t7T-VBizbYoW5ToA", "review_count": 64, "categories": [{"alias": "breweries", "title": "Breweries"}], "rating": 4.5, "coordinates": {"latitude": 32.3306846311906, "longitude": -111.055818535388}, "transactions": ["delivery"], "price": "$", "location": {"address1": "6800 N Camino Martin", "address2": "Ste 160", "address3": null, "city": "Tucson", "zip_code": "85741", "country": "US", "state": "AZ", "display_address": ["6800 N Camino Martin", "Ste 160", "Tucson, AZ 85741"]}, "phone": "+15202688543", "display_phone": "(520) 268-8543", "distance": 15051.810454409853}, {"id": "LepijX5_k2VSeDle-wAKTA", "alias": "cactus-rose-tucson-2", "name": "Cactus Rose", "image_url": "https://s3-media2.fl.yelpcdn.com/bphoto/X6qJO64T-yALH09r8Pv7iA/o.jpg", "is_closed": false, "url": "https://www.yelp.com/biz/cactus-rose-tucson-2?adjust_creative=aS_rL-t7T-VBizbYoW5ToA&utm_campaign=yelp_api_v3&utm_medium=api_v3_business_search&utm_source=aS_rL-t7T-VBizbYoW5ToA", "review_count": 25, "categories": [{"alias": "tradamerican", "title": "American (Traditional)"}], "rating": 3.5, "coordinates": {"latitude": 32.21506, "longitude": -110.90765}, "transactions": ["delivery"], "price": "$$", "location": {"address1": "445 S Alvernon Way", "address2": "", "address3": "", "city": "Tucson", "zip_code": "85711", "country": "US", "state": "AZ", "display_address": ["445 S Alvernon Way", "Tucson, AZ 85711"]}, "phone": "+15208814200", "display_phone": "(520) 881-4200", "distance": 4042.1019986761175}, {"id": "jMStvE-tQzSpRCAO0nAE6g", "alias": "red-robin-gourmet-burgers-and-brews-tucson", "name": "Red Robin Gourmet Burgers and Brews", "image_url": "https://s3-media1.fl.yelpcdn.com/bphoto/AdfhZBEiV6bO2pmLKtGG8w/o.jpg", "is_closed": false, "url": "https://www.yelp.com/biz/red-robin-gourmet-burgers-and-brews-tucson?adjust_creative=aS_rL-t7T-VBizbYoW5ToA&utm_campaign=yelp_api_v3&utm_medium=api_v3_business_search&utm_source=aS_rL-t7T-VBizbYoW5ToA", "review_count": 174, "categories": [{"alias": "tradamerican", "title": "American (Traditional)"}, {"alias": "burgers", "title": "Burgers"}], "rating": 3.0, "coordinates": {"latitude": 32.167311, "longitude": -110.986422}, "transactions": ["pickup", "delivery"], "price": "$$", "location": {"address1": "4605 S Calle Santa Cruz", "address2": "", "address3": null, "city": "Tucson", "zip_code": "85714", "country": "US", "state": "AZ", "display_address": ["4605 S Calle Santa Cruz", "Tucson, AZ 85714"]}, "phone": "+15202843803", "display_phone": "(520) 284-3803", "distance": 10071.859367829036}, {"id": "QC5q6TKv_qwQ758qalF6Rw", "alias": "the-landing-oro-valley", "name": "The Landing", "image_url": "https://s3-media1.fl.yelpcdn.com/bphoto/3HBw9OcaN9bTx27_4xCTtQ/o.jpg", "is_closed": false, "url": "https://www.yelp.com/biz/the-landing-oro-valley?adjust_creative=aS_rL-t7T-VBizbYoW5ToA&utm_campaign=yelp_api_v3&utm_medium=api_v3_business_search&utm_source=aS_rL-t7T-VBizbYoW5ToA", "review_count": 52, "categories": [{"alias": "tacos", "title": "Tacos"}, {"alias": "burgers", "title": "Burgers"}, {"alias": "tradamerican", "title": "American (Traditional)"}], "rating": 3.5, "coordinates": {"latitude": 32.35526, "longitude": -110.9749}, "transactions": ["pickup", "delivery"], "price": "$$", "location": {"address1": "8195 N Oracle Rd", "address2": "", "address3": null, "city": "Oro Valley", "zip_code": "85704", "country": "US", "state": "AZ", "display_address": ["8195 N Oracle Rd", "Oro Valley, AZ 85704"]}, "phone": "+15203951099", "display_phone": "(520) 395-1099", "distance": 12884.210722205582}, {"id": "RHj1RITdSwuXTc-lfJPO-w", "alias": "omars-hi-way-chef-restaurant-tucson", "name": "Omar's Hi-Way Chef Restaurant", "image_url": "https://s3-media3.fl.yelpcdn.com/bphoto/A3MSLfAUTO3vwtMl5rVFiA/o.jpg", "is_closed": false, "url": "https://www.yelp.com/biz/omars-hi-way-chef-restaurant-tucson?adjust_creative=aS_rL-t7T-VBizbYoW5ToA&utm_campaign=yelp_api_v3&utm_medium=api_v3_business_search&utm_source=aS_rL-t7T-VBizbYoW5ToA", "review_count": 209, "categories": [{"alias": "tradamerican", "title": "American (Traditional)"}, {"alias": "diners", "title": "Diners"}, {"alias": "breakfast_brunch", "title": "Breakfast & Brunch"}], "rating": 3.5, "coordinates": {"latitude": 32.127387, "longitude": -110.876075}, "transactions": ["pickup"], "price": "$$", "location": {"address1": "5451 E Benson Hwy", "address2": "", "address3": "", "city": "Tucson", "zip_code": "85706", "country": "US", "state": "AZ", "display_address": ["5451 E Benson Hwy", "Tucson, AZ 85706"]}, "phone": "+15205740961", "display_phone": "(520) 574-0961", "distance": 14103.417015736844}, {"id": "cDFdJf66LozpZhO0AxVQig", "alias": "peter-piper-pizza-tucson-14", "name": "Peter Piper Pizza", "image_url": "https://s3-media4.fl.yelpcdn.com/bphoto/U-zm8tjHXgx7qdKD6A6njw/o.jpg", "is_closed": false, "url": "https://www.yelp.com/biz/peter-piper-pizza-tucson-14?adjust_creative=aS_rL-t7T-VBizbYoW5ToA&utm_campaign=yelp_api_v3&utm_medium=api_v3_business_search&utm_source=aS_rL-t7T-VBizbYoW5ToA", "review_count": 35, "categories": [{"alias": "pizza", "title": "Pizza"}, {"alias": "chicken_wings", "title": "Chicken Wings"}, {"alias": "buffets", "title": "Buffets"}], "rating": 3.5, "coordinates": {"latitude": 32.3359034297517, "longitude": -111.044552911362}, "transactions": [], "price": "$", "location": {"address1": "3741 W Ina Rd", "address2": "", "address3": "", "city": "Tucson", "zip_code": "85741", "country": "US", "state": "AZ", "display_address": ["3741 W Ina Rd", "Tucson, AZ 85741"]}, "phone": "+15207441111", "display_phone": "(520) 744-1111", "distance": 14640.19044405153}, {"id": "adu5voMt1rln1nilzZh9uA", "alias": "peter-piper-pizza-tucson-12", "name": "Peter Piper Pizza", "image_url": "https://s3-media3.fl.yelpcdn.com/bphoto/37ye6I0YiNK83gOTHPAjHQ/o.jpg", "is_closed": false, "url": "https://www.yelp.com/biz/peter-piper-pizza-tucson-12?adjust_creative=aS_rL-t7T-VBizbYoW5ToA&utm_campaign=yelp_api_v3&utm_medium=api_v3_business_search&utm_source=aS_rL-t7T-VBizbYoW5ToA", "review_count": 48, "categories": [{"alias": "pizza", "title": "Pizza"}, {"alias": "chicken_wings", "title": "Chicken Wings"}, {"alias": "buffets", "title": "Buffets"}], "rating": 3.0, "coordinates": {"latitude": 32.20821, "longitude": -110.78868}, "transactions": [], "price": "$$", "location": {"address1": "9545 E Old Spanish Trl", "address2": "Ste 125", "address3": null, "city": "Tucson", "zip_code": "85748", "country": "US", "state": "AZ", "display_address": ["9545 E Old Spanish Trl", "Ste 125", "Tucson, AZ 85748"]}, "phone": "+15207224400", "display_phone": "(520) 722-4400", "distance": 14078.732442152977}, {"id": "HoKH4Rk7wHfVT-60aYIYwA", "alias": "hotrods-old-vail-tucson", "name": "Hotrods Old Vail", "image_url": "https://s3-media2.fl.yelpcdn.com/bphoto/fum7enwrSuSCMN1GA9YIxw/o.jpg", "is_closed": false, "url": "https://www.yelp.com/biz/hotrods-old-vail-tucson?adjust_creative=aS_rL-t7T-VBizbYoW5ToA&utm_campaign=yelp_api_v3&utm_medium=api_v3_business_search&utm_source=aS_rL-t7T-VBizbYoW5ToA", "review_count": 319, "categories": [{"alias": "tradamerican", "title": "American (Traditional)"}, {"alias": "bars", "title": "Bars"}], "rating": 2.5, "coordinates": {"latitude": 32.0808791906126, "longitude": -110.768988132478}, "transactions": ["delivery"], "price": "$$", "location": {"address1": "10500 E Old Vail Rd", "address2": "", "address3": "", "city": "Tucson", "zip_code": "85747", "country": "US", "state": "AZ", "display_address": ["10500 E Old Vail Rd", "Tucson, AZ 85747"]}, "phone": "+15202020987", "display_phone": "(520) 202-0987", "distance": 23838.72031841646}, {"id": "70II-KIgWeTazQtaxzCKZQ", "alias": "famous-sams-tucson-13", "name": "Famous Sam's", "image_url": "https://s3-media4.fl.yelpcdn.com/bphoto/GZx2dra4ZLSxx0ogH9vnYg/o.jpg", "is_closed": false, "url": "https://www.yelp.com/biz/famous-sams-tucson-13?adjust_creative=aS_rL-t7T-VBizbYoW5ToA&utm_campaign=yelp_api_v3&utm_medium=api_v3_business_search&utm_source=aS_rL-t7T-VBizbYoW5ToA", "review_count": 40, "categories": [{"alias": "sportsbars", "title": "Sports Bars"}, {"alias": "tradamerican", "title": "American (Traditional)"}, {"alias": "salad", "title": "Salad"}], "rating": 3.5, "coordinates": {"latitude": 32.35274, "longitude": -110.9732}, "transactions": ["delivery"], "price": "$", "location": {"address1": "8058 N Oracle Rd", "address2": "", "address3": "", "city": "Tucson", "zip_code": "85704", "country": "US", "state": "AZ", "display_address": ["8058 N Oracle Rd", "Tucson, AZ 85704"]}, "phone": "+15205319464", "display_phone": "(520) 531-9464", "distance": 12574.601659877198}, {"id": "DuDSt3THo7_jPkad-eZffg", "alias": "chilis-tucson-8", "name": "Chili's", "image_url": "https://s3-media1.fl.yelpcdn.com/bphoto/M_mZhwuIlLgOSyGdQu_htw/o.jpg", "is_closed": false, "url": "https://www.yelp.com/biz/chilis-tucson-8?adjust_creative=aS_rL-t7T-VBizbYoW5ToA&utm_campaign=yelp_api_v3&utm_medium=api_v3_business_search&utm_source=aS_rL-t7T-VBizbYoW5ToA", "review_count": 195, "categories": [{"alias": "tradamerican", "title": "American (Traditional)"}, {"alias": "bars", "title": "Bars"}, {"alias": "tex-mex", "title": "Tex-Mex"}], "rating": 2.5, "coordinates": {"latitude": 32.22107, "longitude": -110.88217}, "transactions": ["pickup", "delivery"], "price": "$$", "location": {"address1": "5150 E Broadway Blvd", "address2": "", "address3": "", "city": "Tucson", "zip_code": "85711", "country": "US", "state": "AZ", "display_address": ["5150 E Broadway Blvd", "Tucson, AZ 85711"]}, "phone": "+15207473330", "display_phone": "(520) 747-3330", "distance": 5375.311510351356}, {"id": "0-BLZd37lMUODMuYAtKgkA", "alias": "mobys-tucson", "name": "Moby's", "image_url": "https://s3-media4.fl.yelpcdn.com/bphoto/H2BDopnCDUHVqx_ydbVkhg/o.jpg", "is_closed": false, "url": "https://www.yelp.com/biz/mobys-tucson?adjust_creative=aS_rL-t7T-VBizbYoW5ToA&utm_campaign=yelp_api_v3&utm_medium=api_v3_business_search&utm_source=aS_rL-t7T-VBizbYoW5ToA", "review_count": 71, "categories": [{"alias": "diners", "title": "Diners"}, {"alias": "breakfast_brunch", "title": "Breakfast & Brunch"}, {"alias": "tradamerican", "title": "American (Traditional)"}], "rating": 2.5, "coordinates": {"latitude": 32.12715, "longitude": -111.08416}, "transactions": ["delivery"], "price": "$", "location": {"address1": "5655 W Valencia Rd", "address2": "", "address3": "Casino Del Sol", "city": "Tucson", "zip_code": "85757", "country": "US", "state": "AZ", "display_address": ["5655 W Valencia Rd", "Casino Del Sol", "Tucson, AZ 85757"]}, "phone": "+15208386549", "display_phone": "(520) 838-6549", "distance": 19326.37721221992}, {"id": "zwrgCMuZyFX46mL3piDyjg", "alias": "cup-cafe-tucson", "name": "Cup Cafe", "image_url": "https://s3-media1.fl.yelpcdn.com/bphoto/tjRkRkNIp4TodLMem6qtDw/o.jpg", "is_closed": false, "url": "https://www.yelp.com/biz/cup-cafe-tucson?adjust_creative=aS_rL-t7T-VBizbYoW5ToA&utm_campaign=yelp_api_v3&utm_medium=api_v3_business_search&utm_source=aS_rL-t7T-VBizbYoW5ToA", "review_count": 931, "categories": [{"alias": "newamerican", "title": "American (New)"}, {"alias": "breakfast_brunch", "title": "Breakfast & Brunch"}, {"alias": "bars", "title": "Bars"}], "rating": 4.0, "coordinates": {"latitude": 32.22224931496368, "longitude": -110.96661006561565}, "transactions": ["delivery"], "price": "$$", "location": {"address1": "311 E Congress St", "address2": "", "address3": "Hotel Congress", "city": "Tucson", "zip_code": "85701", "country": "US", "state": "AZ", "display_address": ["311 E Congress St", "Hotel Congress", "Tucson, AZ 85701"]}, "phone": "+15207981618", "display_phone": "(520) 798-1618", "distance": 4155.904350614848}, {"id": "8rqwDuBus44caM9fPp52ww", "alias": "high-5-grille-tucson", "name": "High 5 Grille", "image_url": "https://s3-media2.fl.yelpcdn.com/bphoto/14gee3anRFyMzhhS-5EDKw/o.jpg", "is_closed": false, "url": "https://www.yelp.com/biz/high-5-grille-tucson?adjust_creative=aS_rL-t7T-VBizbYoW5ToA&utm_campaign=yelp_api_v3&utm_medium=api_v3_business_search&utm_source=aS_rL-t7T-VBizbYoW5ToA", "review_count": 19, "categories": [{"alias": "sportsbars", "title": "Sports Bars"}, {"alias": "tradamerican", "title": "American (Traditional)"}], "rating": 3.0, "coordinates": {"latitude": 32.323921, "longitude": -111.043166}, "transactions": ["pickup", "delivery"], "location": {"address1": "3682 W Orange Grove Rd", "address2": "", "address3": null, "city": "Tucson", "zip_code": "85741", "country": "US", "state": "AZ", "display_address": ["3682 W Orange Grove Rd", "Tucson, AZ 85741"]}, "phone": "+15208778100", "display_phone": "(520) 877-8100", "distance": 13659.757678195905}, {"id": "qJaweGk0XzeG4cs4B7qV7A", "alias": "montgomerys-grill-and-saloon-vail", "name": "Montgomery's Grill & Saloon", "image_url": "https://s3-media3.fl.yelpcdn.com/bphoto/Ez8TfZNDX2fp3-4KvTn2mg/o.jpg", "is_closed": false, "url": "https://www.yelp.com/biz/montgomerys-grill-and-saloon-vail?adjust_creative=aS_rL-t7T-VBizbYoW5ToA&utm_campaign=yelp_api_v3&utm_medium=api_v3_business_search&utm_source=aS_rL-t7T-VBizbYoW5ToA", "review_count": 139, "categories": [{"alias": "bars", "title": "Bars"}, {"alias": "tradamerican", "title": "American (Traditional)"}], "rating": 3.5, "coordinates": {"latitude": 32.04468, "longitude": -110.71283}, "transactions": [], "price": "$$", "location": {"address1": "13190 E Colossal Cave Rd", "address2": "Ste 190", "address3": null, "city": "Vail", "zip_code": "85641", "country": "US", "state": "AZ", "display_address": ["13190 E Colossal Cave Rd", "Ste 190", "Vail, AZ 85641"]}, "phone": "+15207620081", "display_phone": "(520) 762-0081", "distance": 30352.15038159975}, {"id": "MDNXo_6wMUkbv2_W3GOW7A", "alias": "dave-and-busters-tucson-2", "name": "Dave & Buster's", "image_url": "https://s3-media3.fl.yelpcdn.com/bphoto/G8aDXuWz91whgiXBWx3IYQ/o.jpg", "is_closed": false, "url": "https://www.yelp.com/biz/dave-and-busters-tucson-2?adjust_creative=aS_rL-t7T-VBizbYoW5ToA&utm_campaign=yelp_api_v3&utm_medium=api_v3_business_search&utm_source=aS_rL-t7T-VBizbYoW5ToA", "review_count": 223, "categories": [{"alias": "arcades", "title": "Arcades"}, {"alias": "bars", "title": "Bars"}, {"alias": "tradamerican", "title": "American (Traditional)"}], "rating": 2.5, "coordinates": {"latitude": 32.18255347134296, "longitude": -110.9514560314693}, "transactions": ["pickup", "delivery"], "price": "$$", "location": {"address1": "1390 E Tucson Marketplace Blvd", "address2": "", "address3": null, "city": "Tucson", "zip_code": "85713", "country": "US", "state": "AZ", "display_address": ["1390 E Tucson Marketplace Blvd", "Tucson, AZ 85713"]}, "phone": "+15203303400", "display_phone": "(520) 330-3400", "distance": 7205.480631398334}, {"id": "ldT9ihVk6BG6fXWd1N3ybA", "alias": "the-station-pub-and-grill-tucson", "name": "The Station Pub & Grill", "image_url": "https://s3-media3.fl.yelpcdn.com/bphoto/-wEo-cHhJyKMdEQ__rJdHw/o.jpg", "is_closed": false, "url": "https://www.yelp.com/biz/the-station-pub-and-grill-tucson?adjust_creative=aS_rL-t7T-VBizbYoW5ToA&utm_campaign=yelp_api_v3&utm_medium=api_v3_business_search&utm_source=aS_rL-t7T-VBizbYoW5ToA", "review_count": 96, "categories": [{"alias": "tradamerican", "title": "American (Traditional)"}], "rating": 3.5, "coordinates": {"latitude": 32.3562660217285, "longitude": -111.112350463867}, "transactions": ["delivery"], "price": "$$", "location": {"address1": "8235 N Silverbell Rd", "address2": "Ste 105", "address3": "", "city": "Tucson", "zip_code": "85743", "country": "US", "state": "AZ", "display_address": ["8235 N Silverbell Rd", "Ste 105", "Tucson, AZ 85743"]}, "phone": "+15207897040", "display_phone": "(520) 789-7040", "distance": 20997.792585361865}, {"id": "mmSdrb5S0emz3q4kWcIXzA", "alias": "dennys-tucson-10", "name": "Denny's", "image_url": "https://s3-media2.fl.yelpcdn.com/bphoto/bYO-QYsLEg4ymOSC_5Mwwg/o.jpg", "is_closed": false, "url": "https://www.yelp.com/biz/dennys-tucson-10?adjust_creative=aS_rL-t7T-VBizbYoW5ToA&utm_campaign=yelp_api_v3&utm_medium=api_v3_business_search&utm_source=aS_rL-t7T-VBizbYoW5ToA", "review_count": 71, "categories": [{"alias": "diners", "title": "Diners"}, {"alias": "breakfast_brunch", "title": "Breakfast & Brunch"}, {"alias": "tradamerican", "title": "American (Traditional)"}], "rating": 2.5, "coordinates": {"latitude": 32.2066079, "longitude": -110.9057538}, "transactions": ["pickup", "delivery"], "price": "$", "location": {"address1": "4040 E 22nd St", "address2": "", "address3": "", "city": "Tucson", "zip_code": "85711", "country": "US", "state": "AZ", "display_address": ["4040 E 22nd St", "Tucson, AZ 85711"]}, "phone": "+15207454629", "display_phone": "(520) 745-4629", "distance": 4933.106083507002}, {"id": "fLVkw1HCdIjkEBVoa2Vv7A", "alias": "peter-piper-pizza-tucson", "name": "Peter Piper Pizza", "image_url": "https://s3-media1.fl.yelpcdn.com/bphoto/e214Vg5EFzPTuxMT2LNvsw/o.jpg", "is_closed": false, "url": "https://www.yelp.com/biz/peter-piper-pizza-tucson?adjust_creative=aS_rL-t7T-VBizbYoW5ToA&utm_campaign=yelp_api_v3&utm_medium=api_v3_business_search&utm_source=aS_rL-t7T-VBizbYoW5ToA", "review_count": 12, "categories": [{"alias": "pizza", "title": "Pizza"}, {"alias": "chicken_wings", "title": "Chicken Wings"}, {"alias": "buffets", "title": "Buffets"}], "rating": 2.5, "coordinates": {"latitude": 32.1349449157715, "longitude": -110.976516723633}, "transactions": [], "price": "$$", "location": {"address1": "432 W Valencia Rd", "address2": "", "address3": "", "city": "Tucson", "zip_code": "85706", "country": "US", "state": "AZ", "display_address": ["432 W Valencia Rd", "Tucson, AZ 85706"]}, "phone": "+15208890600", "display_phone": "(520) 889-0600", "distance": 12966.569368226683}, {"id": "k-QEp8E_1cJU3poJS_V2-g", "alias": "bostons-restaurant-and-sports-bar-tucson", "name": "Boston's Restaurant & Sports Bar", "image_url": "https://s3-media1.fl.yelpcdn.com/bphoto/SRENbazoDjtPM9gO47Y65A/o.jpg", "is_closed": false, "url": "https://www.yelp.com/biz/bostons-restaurant-and-sports-bar-tucson?adjust_creative=aS_rL-t7T-VBizbYoW5ToA&utm_campaign=yelp_api_v3&utm_medium=api_v3_business_search&utm_source=aS_rL-t7T-VBizbYoW5ToA", "review_count": 159, "categories": [{"alias": "pizza", "title": "Pizza"}, {"alias": "sportsbars", "title": "Sports Bars"}], "rating": 3.5, "coordinates": {"latitude": 32.35338, "longitude": -111.08945}, "transactions": ["pickup", "delivery"], "price": "$$", "location": {"address1": "5825 W Arizona Pavillions Dr", "address2": null, "address3": null, "city": "Tucson", "zip_code": "85743", "country": "US", "state": "AZ", "display_address": ["5825 W Arizona Pavillions Dr", "Tucson, AZ 85743"]}, "phone": "+15205721555", "display_phone": "(520) 572-1555", "distance": 19110.08702188314}, {"id": "sWfu-ZkW8alFwLQ0DAb3NQ", "alias": "wingstop-tucson-2", "name": "Wingstop", "image_url": "https://s3-media2.fl.yelpcdn.com/bphoto/SQK6nPTYHW4Vapj7n-DZaA/o.jpg", "is_closed": false, "url": "https://www.yelp.com/biz/wingstop-tucson-2?adjust_creative=aS_rL-t7T-VBizbYoW5ToA&utm_campaign=yelp_api_v3&utm_medium=api_v3_business_search&utm_source=aS_rL-t7T-VBizbYoW5ToA", "review_count": 57, "categories": [{"alias": "chicken_wings", "title": "Chicken Wings"}], "rating": 2.5, "coordinates": {"latitude": 32.13435, "longitude": -111.00212}, "transactions": [], "price": "$", "location": {"address1": "1710 W Valencia Rd", "address2": null, "address3": null, "city": "Tucson", "zip_code": "85746", "country": "US", "state": "AZ", "display_address": ["1710 W Valencia Rd", "Tucson, AZ 85746"]}, "phone": "+15208069464", "display_phone": "(520) 806-9464", "distance": 13992.317089341846}, {"id": "5kG1tlS5odFZtf-DEnuhkw", "alias": "red-lobster-tucson-2", "name": "Red Lobster", "image_url": "https://s3-media2.fl.yelpcdn.com/bphoto/OIpAz_g6nkIuHgHF0q2VtQ/o.jpg", "is_closed": false, "url": "https://www.yelp.com/biz/red-lobster-tucson-2?adjust_creative=aS_rL-t7T-VBizbYoW5ToA&utm_campaign=yelp_api_v3&utm_medium=api_v3_business_search&utm_source=aS_rL-t7T-VBizbYoW5ToA", "review_count": 107, "categories": [{"alias": "seafood", "title": "Seafood"}, {"alias": "tradamerican", "title": "American (Traditional)"}], "rating": 3.0, "coordinates": {"latitude": 32.29800488, "longitude": -110.97912937}, "transactions": ["pickup", "delivery"], "price": "$$", "location": {"address1": "5061 N Oracle Rd", "address2": "River and Oracle", "address3": "", "city": "Tucson", "zip_code": "85704", "country": "US", "state": "AZ", "display_address": ["5061 N Oracle Rd", "River and Oracle", "Tucson, AZ 85704"]}, "phone": "+15202939174", "display_phone": "(520) 293-9174", "distance": 7376.284085884977}, {"id": "kXvVlxBOaEBTUSMiRec9xA", "alias": "monsoons-tap-and-grill-tucson", "name": "Monsoons Tap & Grill", "image_url": "https://s3-media1.fl.yelpcdn.com/bphoto/c08SJuTH-zatb1loDJLyFw/o.jpg", "is_closed": false, "url": "https://www.yelp.com/biz/monsoons-tap-and-grill-tucson?adjust_creative=aS_rL-t7T-VBizbYoW5ToA&utm_campaign=yelp_api_v3&utm_medium=api_v3_business_search&utm_source=aS_rL-t7T-VBizbYoW5ToA", "review_count": 175, "categories": [{"alias": "tradamerican", "title": "American (Traditional)"}, {"alias": "burgers", "title": "Burgers"}, {"alias": "sandwiches", "title": "Sandwiches"}], "rating": 3.5, "coordinates": {"latitude": 32.3299359, "longitude": -111.046815}, "transactions": ["delivery"], "price": "$$", "location": {"address1": "6781 N Thornydale Rd", "address2": "Ste 261", "address3": "", "city": "Tucson", "zip_code": "85741", "country": "US", "state": "AZ", "display_address": ["6781 N Thornydale Rd", "Ste 261", "Tucson, AZ 85741"]}, "phone": "+15202190301", "display_phone": "(520) 219-0301", "distance": 14350.92062416388}, {"id": "H1i2aWZKw0SRPfaDImV5XA", "alias": "wingstop-tucson-6", "name": "Wingstop", "image_url": "https://s3-media3.fl.yelpcdn.com/bphoto/vaNjbeTub7_moSIBZZtVzA/o.jpg", "is_closed": false, "url": "https://www.yelp.com/biz/wingstop-tucson-6?adjust_creative=aS_rL-t7T-VBizbYoW5ToA&utm_campaign=yelp_api_v3&utm_medium=api_v3_business_search&utm_source=aS_rL-t7T-VBizbYoW5ToA", "review_count": 74, "categories": [{"alias": "chicken_wings", "title": "Chicken Wings"}], "rating": 2.5, "coordinates": {"latitude": 32.338077545166, "longitude": -111.043846130371}, "transactions": [], "price": "$$", "location": {"address1": "3662 W Ina Rd", "address2": "", "address3": "", "city": "Tucson", "zip_code": "85741", "country": "US", "state": "AZ", "display_address": ["3662 W Ina Rd", "Tucson, AZ 85741"]}, "phone": "+15208829464", "display_phone": "(520) 882-9464", "distance": 14762.212102965506}, {"id": "W55GtTcl8tv564IZ1tk8vw", "alias": "kfc-tucson-15", "name": "KFC", "image_url": "https://s3-media2.fl.yelpcdn.com/bphoto/w9uqV4c7i6Axz21wA8J4dA/o.jpg", "is_closed": false, "url": "https://www.yelp.com/biz/kfc-tucson-15?adjust_creative=aS_rL-t7T-VBizbYoW5ToA&utm_campaign=yelp_api_v3&utm_medium=api_v3_business_search&utm_source=aS_rL-t7T-VBizbYoW5ToA", "review_count": 92, "categories": [{"alias": "hotdogs", "title": "Fast Food"}, {"alias": "chicken_wings", "title": "Chicken Wings"}, {"alias": "chickenshop", "title": "Chicken Shop"}], "rating": 1.0, "coordinates": {"latitude": 32.19241182893099, "longitude": -110.8381137760748}, "transactions": ["pickup", "delivery"], "price": "$", "location": {"address1": "7245 E Golf Links Rd", "address2": "", "address3": "", "city": "Tucson", "zip_code": "85730", "country": "US", "state": "AZ", "display_address": ["7245 E Golf Links Rd", "Tucson, AZ 85730"]}, "phone": "+15202960370", "display_phone": "(520) 296-0370", "distance": 10579.02503653846}, {"id": "I0053JmJ5DEFUWSJ8pikhA", "alias": "golden-corral-buffet-and-grill-tucson", "name": "Golden Corral Buffet & Grill", "image_url": "https://s3-media2.fl.yelpcdn.com/bphoto/1aqKSlrVPUSjsaZeiGhFIg/o.jpg", "is_closed": false, "url": "https://www.yelp.com/biz/golden-corral-buffet-and-grill-tucson?adjust_creative=aS_rL-t7T-VBizbYoW5ToA&utm_campaign=yelp_api_v3&utm_medium=api_v3_business_search&utm_source=aS_rL-t7T-VBizbYoW5ToA", "review_count": 92, "categories": [{"alias": "buffets", "title": "Buffets"}, {"alias": "tradamerican", "title": "American (Traditional)"}], "rating": 2.5, "coordinates": {"latitude": 32.206523, "longitude": -110.899301}, "transactions": [], "price": "$$", "location": {"address1": "4380 E 22nd St", "address2": "", "address3": "", "city": "Tucson", "zip_code": "85711", "country": "US", "state": "AZ", "display_address": ["4380 E 22nd St", "Tucson, AZ 85711"]}, "phone": "+15205120088", "display_phone": "(520) 512-0088", "distance": 5275.18028679903}, {"id": "KFAoYnkUVC-AJY22s8L9Iw", "alias": "dominos-pizza-tucson-28", "name": "Domino's Pizza", "image_url": "https://s3-media3.fl.yelpcdn.com/bphoto/5GQyOLgOHpDcTrrRJ-6kmA/o.jpg", "is_closed": false, "url": "https://www.yelp.com/biz/dominos-pizza-tucson-28?adjust_creative=aS_rL-t7T-VBizbYoW5ToA&utm_campaign=yelp_api_v3&utm_medium=api_v3_business_search&utm_source=aS_rL-t7T-VBizbYoW5ToA", "review_count": 31, "categories": [{"alias": "pizza", "title": "Pizza"}, {"alias": "chicken_wings", "title": "Chicken Wings"}, {"alias": "sandwiches", "title": "Sandwiches"}], "rating": 3.0, "coordinates": {"latitude": 32.28623, "longitude": -110.96047}, "transactions": ["delivery"], "price": "$", "location": {"address1": "4390 N 1st Ave", "address2": "", "address3": "", "city": "Tucson", "zip_code": "85719", "country": "US", "state": "AZ", "display_address": ["4390 N 1st Ave", "Tucson, AZ 85719"]}, "phone": "+15202935990", "display_phone": "(520) 293-5990", "distance": 5310.342094389048}, {"id": "-xtnwq4VBA2XFobjDGz0Ww", "alias": "red-lobster-tucson-3", "name": "Red Lobster", "image_url": "https://s3-media2.fl.yelpcdn.com/bphoto/n6rJX39HrLVJpkVHtLapZQ/o.jpg", "is_closed": false, "url": "https://www.yelp.com/biz/red-lobster-tucson-3?adjust_creative=aS_rL-t7T-VBizbYoW5ToA&utm_campaign=yelp_api_v3&utm_medium=api_v3_business_search&utm_source=aS_rL-t7T-VBizbYoW5ToA", "review_count": 141, "categories": [{"alias": "seafood", "title": "Seafood"}, {"alias": "tradamerican", "title": "American (Traditional)"}], "rating": 3.0, "coordinates": {"latitude": 32.21986, "longitude": -110.86599}, "transactions": ["pickup", "delivery"], "price": "$$", "location": {"address1": "5870 E Broadway Blvd", "address2": "Ste E-5 Park Place Mall", "address3": "", "city": "Tucson", "zip_code": "85711", "country": "US", "state": "AZ", "display_address": ["5870 E Broadway Blvd", "Ste E-5 Park Place Mall", "Tucson, AZ 85711"]}, "phone": "+15205191002", "display_phone": "(520) 519-1002", "distance": 6790.940072002729}, {"id": "XxwTsHUvTA-9yT3feC2OmQ", "alias": "sawmill-run-restaurant-mount-lemmon-2", "name": "Sawmill Run Restaurant", "image_url": "https://s3-media2.fl.yelpcdn.com/bphoto/ZOVIfpphVNBcDbUpYtX59g/o.jpg", "is_closed": false, "url": "https://www.yelp.com/biz/sawmill-run-restaurant-mount-lemmon-2?adjust_creative=aS_rL-t7T-VBizbYoW5ToA&utm_campaign=yelp_api_v3&utm_medium=api_v3_business_search&utm_source=aS_rL-t7T-VBizbYoW5ToA", "review_count": 246, "categories": [{"alias": "newamerican", "title": "American (New)"}], "rating": 3.0, "coordinates": {"latitude": 32.444955, "longitude": -110.760195}, "transactions": [], "price": "$$", "location": {"address1": "12976 N Sabino Canyon Pkwy", "address2": null, "address3": "", "city": "Mount Lemmon", "zip_code": "85619", "country": "US", "state": "AZ", "display_address": ["12976 N Sabino Canyon Pkwy", "Mount Lemmon, AZ 85619"]}, "phone": "+15205769147", "display_phone": "(520) 576-9147", "distance": 27443.32192128619}, {"id": "_Fv5mbqb0uCdKQOqo9VH8A", "alias": "papa-johns-pizza-tucson-2", "name": "Papa Johns Pizza", "image_url": "https://s3-media2.fl.yelpcdn.com/bphoto/tbwGAh0pcHBM1i67J5whhQ/o.jpg", "is_closed": false, "url": "https://www.yelp.com/biz/papa-johns-pizza-tucson-2?adjust_creative=aS_rL-t7T-VBizbYoW5ToA&utm_campaign=yelp_api_v3&utm_medium=api_v3_business_search&utm_source=aS_rL-t7T-VBizbYoW5ToA", "review_count": 23, "categories": [{"alias": "pizza", "title": "Pizza"}, {"alias": "chicken_wings", "title": "Chicken Wings"}, {"alias": "hotdogs", "title": "Fast Food"}], "rating": 2.0, "coordinates": {"latitude": 32.2060692, "longitude": -110.8541511}, "transactions": ["delivery", "pickup"], "price": "$", "location": {"address1": "6462 E 22Nd St", "address2": "", "address3": "", "city": "Tucson", "zip_code": "85710", "country": "US", "state": "AZ", "display_address": ["6462 E 22Nd St", "Tucson, AZ 85710"]}, "phone": "+15207417272", "display_phone": "(520) 741-7272", "distance": 8491.766626951736}, {"id": "WUH4XuoSwzaFABouEr8lxA", "alias": "dominos-pizza-tucson-6", "name": "Domino's Pizza", "image_url": "https://s3-media3.fl.yelpcdn.com/bphoto/63AR-wLjdnssmRE_nHOoJg/o.jpg", "is_closed": false, "url": "https://www.yelp.com/biz/dominos-pizza-tucson-6?adjust_creative=aS_rL-t7T-VBizbYoW5ToA&utm_campaign=yelp_api_v3&utm_medium=api_v3_business_search&utm_source=aS_rL-t7T-VBizbYoW5ToA", "review_count": 27, "categories": [{"alias": "pizza", "title": "Pizza"}, {"alias": "chicken_wings", "title": "Chicken Wings"}, {"alias": "sandwiches", "title": "Sandwiches"}], "rating": 2.5, "coordinates": {"latitude": 32.235885855503, "longitude": -110.876505}, "transactions": ["delivery"], "price": "$", "location": {"address1": "5460 E Speedway Blvd", "address2": "Ste B101", "address3": "", "city": "Tucson", "zip_code": "85712", "country": "US", "state": "AZ", "display_address": ["5460 E Speedway Blvd", "Ste B101", "Tucson, AZ 85712"]}, "phone": "+15202962333", "display_phone": "(520) 296-2333", "distance": 5292.733751279034}, {"id": "WnUm6q-zuE6zkYxj1I-Q2w", "alias": "dominos-pizza-tucson-23", "name": "Domino's Pizza", "image_url": "https://s3-media3.fl.yelpcdn.com/bphoto/a8wPGTrNu3HjqFJx8xwvfg/o.jpg", "is_closed": false, "url": "https://www.yelp.com/biz/dominos-pizza-tucson-23?adjust_creative=aS_rL-t7T-VBizbYoW5ToA&utm_campaign=yelp_api_v3&utm_medium=api_v3_business_search&utm_source=aS_rL-t7T-VBizbYoW5ToA", "review_count": 16, "categories": [{"alias": "pizza", "title": "Pizza"}, {"alias": "chicken_wings", "title": "Chicken Wings"}, {"alias": "sandwiches", "title": "Sandwiches"}], "rating": 1.5, "coordinates": {"latitude": 32.1857221, "longitude": -110.9684649}, "transactions": [], "price": "$", "location": {"address1": "3312 S 6th Ave", "address2": "", "address3": null, "city": "Tucson", "zip_code": "85713", "country": "US", "state": "AZ", "display_address": ["3312 S 6th Ave", "Tucson, AZ 85713"]}, "phone": "+15204478000", "display_phone": "(520) 447-8000", "distance": 7431.664752716732}, {"id": "DNMdZVVfhus2H-dH0mI3HA", "alias": "thunder-canyon-brewery-tucson-4", "name": "Thunder Canyon Brewery", "image_url": "https://s3-media2.fl.yelpcdn.com/bphoto/rFr0KZfQJ9ujyoPolzg0eQ/o.jpg", "is_closed": false, "url": "https://www.yelp.com/biz/thunder-canyon-brewery-tucson-4?adjust_creative=aS_rL-t7T-VBizbYoW5ToA&utm_campaign=yelp_api_v3&utm_medium=api_v3_business_search&utm_source=aS_rL-t7T-VBizbYoW5ToA", "review_count": 342, "categories": [{"alias": "breweries", "title": "Breweries"}], "rating": 3.5, "coordinates": {"latitude": 32.2208786010742, "longitude": -110.966499328613}, "transactions": ["delivery"], "price": "$$", "location": {"address1": "220 E Broadway Blvd", "address2": "", "address3": "", "city": "Tucson", "zip_code": "85701", "country": "US", "state": "AZ", "display_address": ["220 E Broadway Blvd", "Tucson, AZ 85701"]}, "phone": "+15203963480", "display_phone": "(520) 396-3480", "distance": 4242.12276493863}, {"id": "l_DrC84A1M5rmKZlM-LJ_w", "alias": "blackjack-pizza-tucson-8", "name": "Blackjack Pizza", "image_url": "https://s3-media2.fl.yelpcdn.com/bphoto/jBSRmQbjzXUrcKEkLuWROg/o.jpg", "is_closed": false, "url": "https://www.yelp.com/biz/blackjack-pizza-tucson-8?adjust_creative=aS_rL-t7T-VBizbYoW5ToA&utm_campaign=yelp_api_v3&utm_medium=api_v3_business_search&utm_source=aS_rL-t7T-VBizbYoW5ToA", "review_count": 60, "categories": [{"alias": "pizza", "title": "Pizza"}, {"alias": "salad", "title": "Salad"}, {"alias": "chicken_wings", "title": "Chicken Wings"}], "rating": 2.0, "coordinates": {"latitude": 32.22144880205402, "longitude": -110.81449240241889}, "transactions": ["delivery", "pickup"], "price": "$$", "location": {"address1": "8321 E BRdway Blvd", "address2": "", "address3": "", "city": "Tucson", "zip_code": "85710", "country": "US", "state": "AZ", "display_address": ["8321 E BRdway Blvd", "Tucson, AZ 85710"]}, "phone": "+15207222121", "display_phone": "(520) 722-2121", "distance": 11335.377288516853}, {"id": "vpc5PFLMo0oJQzuNZaSlyA", "alias": "applebees-grill-bar-tucson-2", "name": "Applebee's Grill + Bar", "image_url": "https://s3-media3.fl.yelpcdn.com/bphoto/I3IiDpRKjAxhvdRGKmYqBA/o.jpg", "is_closed": false, "url": "https://www.yelp.com/biz/applebees-grill-bar-tucson-2?adjust_creative=aS_rL-t7T-VBizbYoW5ToA&utm_campaign=yelp_api_v3&utm_medium=api_v3_business_search&utm_source=aS_rL-t7T-VBizbYoW5ToA", "review_count": 182, "categories": [{"alias": "tradamerican", "title": "American (Traditional)"}, {"alias": "sportsbars", "title": "Sports Bars"}, {"alias": "burgers", "title": "Burgers"}], "rating": 2.0, "coordinates": {"latitude": 32.221163, "longitude": -110.867223}, "transactions": ["delivery", "pickup"], "price": "$$", "location": {"address1": "5870 East Broadway", "address2": "Park Mall, Bldg E", "address3": "", "city": "Tucson", "zip_code": "85711", "country": "US", "state": "AZ", "display_address": ["5870 East Broadway", "Park Mall, Bldg E", "Tucson, AZ 85711"]}, "phone": "+15207509780", "display_phone": "(520) 750-9780", "distance": 6625.852206783533}, {"id": "HrVLSbII4l46Ke1An_Ps4w", "alias": "dominos-pizza-tucson-3", "name": "Domino's Pizza", "image_url": "https://s3-media3.fl.yelpcdn.com/bphoto/TiXjcSsosYD77dJkwet55g/o.jpg", "is_closed": false, "url": "https://www.yelp.com/biz/dominos-pizza-tucson-3?adjust_creative=aS_rL-t7T-VBizbYoW5ToA&utm_campaign=yelp_api_v3&utm_medium=api_v3_business_search&utm_source=aS_rL-t7T-VBizbYoW5ToA", "review_count": 16, "categories": [{"alias": "pizza", "title": "Pizza"}, {"alias": "chicken_wings", "title": "Chicken Wings"}, {"alias": "sandwiches", "title": "Sandwiches"}], "rating": 2.0, "coordinates": {"latitude": 32.3233749, "longitude": -111.0105065}, "transactions": [], "price": "$", "location": {"address1": "2080 W Orange Grove Rd", "address2": "Ste 120", "address3": "", "city": "Tucson", "zip_code": "85704", "country": "US", "state": "AZ", "display_address": ["2080 W Orange Grove Rd", "Ste 120", "Tucson, AZ 85704"]}, "phone": "+15207427700", "display_phone": "(520) 742-7700", "distance": 11569.070810094201}, {"id": "_Sg2klmzH4JxJCrstJhStw", "alias": "chilis-tucson-4", "name": "Chili's", "image_url": "https://s3-media3.fl.yelpcdn.com/bphoto/KOfG83MQ7TLa5B3jvNxXcg/o.jpg", "is_closed": false, "url": "https://www.yelp.com/biz/chilis-tucson-4?adjust_creative=aS_rL-t7T-VBizbYoW5ToA&utm_campaign=yelp_api_v3&utm_medium=api_v3_business_search&utm_source=aS_rL-t7T-VBizbYoW5ToA", "review_count": 87, "categories": [{"alias": "tex-mex", "title": "Tex-Mex"}, {"alias": "bars", "title": "Bars"}, {"alias": "tradamerican", "title": "American (Traditional)"}], "rating": 2.5, "coordinates": {"latitude": 32.1343574523926, "longitude": -111.001396179199}, "transactions": ["delivery", "pickup"], "price": "$$", "location": {"address1": "1640 W Valencia Rd", "address2": "", "address3": "", "city": "Tucson", "zip_code": "85746", "country": "US", "state": "AZ", "display_address": ["1640 W Valencia Rd", "Tucson, AZ 85746"]}, "phone": "+15205731809", "display_phone": "(520) 573-1809", "distance": 13956.201198718869}, {"id": "uDJQxGBC--6knbNVT58naA", "alias": "thirstys-neighborhood-grill-and-bar-tucson", "name": "Thirsty's Neighborhood Grill & Bar", "image_url": "https://s3-media4.fl.yelpcdn.com/bphoto/Jo69SsOVlJwywFJ_lLQACQ/o.jpg", "is_closed": false, "url": "https://www.yelp.com/biz/thirstys-neighborhood-grill-and-bar-tucson?adjust_creative=aS_rL-t7T-VBizbYoW5ToA&utm_campaign=yelp_api_v3&utm_medium=api_v3_business_search&utm_source=aS_rL-t7T-VBizbYoW5ToA", "review_count": 48, "categories": [{"alias": "pubs", "title": "Pubs"}, {"alias": "tradamerican", "title": "American (Traditional)"}], "rating": 3.0, "coordinates": {"latitude": 32.2512217, "longitude": -110.82278}, "transactions": ["delivery"], "price": "$", "location": {"address1": "2422 N Pantano Rd", "address2": "", "address3": "", "city": "Tucson", "zip_code": "85715", "country": "US", "state": "AZ", "display_address": ["2422 N Pantano Rd", "Tucson, AZ 85715"]}, "phone": "+15208856585", "display_phone": "(520) 885-6585", "distance": 10265.39647494708}, {"id": "bkDuONiCvpgMzRPbNwfDFA", "alias": "red-lobster-tucson", "name": "Red Lobster", "image_url": "https://s3-media2.fl.yelpcdn.com/bphoto/9nUArjLR9MMbFRL-W5Rulw/o.jpg", "is_closed": false, "url": "https://www.yelp.com/biz/red-lobster-tucson?adjust_creative=aS_rL-t7T-VBizbYoW5ToA&utm_campaign=yelp_api_v3&utm_medium=api_v3_business_search&utm_source=aS_rL-t7T-VBizbYoW5ToA", "review_count": 75, "categories": [{"alias": "seafood", "title": "Seafood"}, {"alias": "tradamerican", "title": "American (Traditional)"}], "rating": 3.5, "coordinates": {"latitude": 32.155305, "longitude": -110.987286}, "transactions": ["delivery", "pickup"], "price": "$$", "location": {"address1": "5315 S Calle Santa Cruz", "address2": "Tucson Spectrum Marketplace", "address3": null, "city": "Tucson", "zip_code": "85706", "country": "US", "state": "AZ", "display_address": ["5315 S Calle Santa Cruz", "Tucson Spectrum Marketplace", "Tucson, AZ 85706"]}, "phone": "+15208893536", "display_phone": "(520) 889-3536", "distance": 11277.631187717721}, {"id": "1lSj24GO6VMJ2uB6hW3pGA", "alias": "coachs-all-american-bar-and-grill-green-valley", "name": "Coach's All American Bar & Grill", "image_url": "https://s3-media2.fl.yelpcdn.com/bphoto/Oz3e14NiRPC97jdQPmUakg/o.jpg", "is_closed": false, "url": "https://www.yelp.com/biz/coachs-all-american-bar-and-grill-green-valley?adjust_creative=aS_rL-t7T-VBizbYoW5ToA&utm_campaign=yelp_api_v3&utm_medium=api_v3_business_search&utm_source=aS_rL-t7T-VBizbYoW5ToA", "review_count": 59, "categories": [{"alias": "burgers", "title": "Burgers"}, {"alias": "sportsbars", "title": "Sports Bars"}, {"alias": "tradamerican", "title": "American (Traditional)"}], "rating": 3.0, "coordinates": {"latitude": 31.900741, "longitude": -110.98862}, "transactions": [], "price": "$$", "location": {"address1": "19221 S Alpha Ave", "address2": null, "address3": null, "city": "Green Valley", "zip_code": "85614", "country": "US", "state": "AZ", "display_address": ["19221 S Alpha Ave", "Green Valley, AZ 85614"]}, "phone": "+15206259698", "display_phone": "(520) 625-9698", "distance": 38671.45343567996}, {"id": "0pled4JIW9jjuuMxMNkZCA", "alias": "famous-sams-tucson-14", "name": "Famous Sam's", "image_url": "https://s3-media1.fl.yelpcdn.com/bphoto/JsYw3xDRJ-nTIgt3NzfV2w/o.jpg", "is_closed": false, "url": "https://www.yelp.com/biz/famous-sams-tucson-14?adjust_creative=aS_rL-t7T-VBizbYoW5ToA&utm_campaign=yelp_api_v3&utm_medium=api_v3_business_search&utm_source=aS_rL-t7T-VBizbYoW5ToA", "review_count": 15, "categories": [{"alias": "newamerican", "title": "American (New)"}, {"alias": "sportsbars", "title": "Sports Bars"}, {"alias": "salad", "title": "Salad"}], "rating": 2.5, "coordinates": {"latitude": 32.13481, "longitude": -111.03062}, "transactions": ["delivery"], "price": "$", "location": {"address1": "3010 W Valencia Rd", "address2": "", "address3": "", "city": "Tucson", "zip_code": "85746", "country": "US", "state": "AZ", "display_address": ["3010 W Valencia Rd", "Tucson, AZ 85746"]}, "phone": "+15208838888", "display_phone": "(520) 883-8888", "distance": 15418.684174162678}, {"id": "zWnIqm5LrKXZQY0VfbZXhg", "alias": "kfc-tucson-17", "name": "KFC", "image_url": "https://s3-media3.fl.yelpcdn.com/bphoto/-dwDeaANnXc0bZzenWvjKw/o.jpg", "is_closed": false, "url": "https://www.yelp.com/biz/kfc-tucson-17?adjust_creative=aS_rL-t7T-VBizbYoW5ToA&utm_campaign=yelp_api_v3&utm_medium=api_v3_business_search&utm_source=aS_rL-t7T-VBizbYoW5ToA", "review_count": 55, "categories": [{"alias": "hotdogs", "title": "Fast Food"}, {"alias": "chicken_wings", "title": "Chicken Wings"}, {"alias": "chickenshop", "title": "Chicken Shop"}], "rating": 1.5, "coordinates": {"latitude": 32.134141795964, "longitude": -111.030487546671}, "transactions": ["delivery", "pickup"], "price": "$", "location": {"address1": "2970 W Valencia Rd", "address2": "", "address3": "", "city": "Tucson", "zip_code": "85746", "country": "US", "state": "AZ", "display_address": ["2970 W Valencia Rd", "Tucson, AZ 85746"]}, "phone": "+15208480900", "display_phone": "(520) 848-0900", "distance": 15453.5073878571}, {"id": "CfhUq_tF9j6N4d34y0SU_A", "alias": "dennys-tucson-3", "name": "Denny's", "image_url": "https://s3-media3.fl.yelpcdn.com/bphoto/vnjEPWfVlHNmijCCjg2CRg/o.jpg", "is_closed": false, "url": "https://www.yelp.com/biz/dennys-tucson-3?adjust_creative=aS_rL-t7T-VBizbYoW5ToA&utm_campaign=yelp_api_v3&utm_medium=api_v3_business_search&utm_source=aS_rL-t7T-VBizbYoW5ToA", "review_count": 76, "categories": [{"alias": "diners", "title": "Diners"}, {"alias": "tradamerican", "title": "American (Traditional)"}, {"alias": "breakfast_brunch", "title": "Breakfast & Brunch"}], "rating": 2.5, "coordinates": {"latitude": 32.2303618138975, "longitude": -110.983737589468}, "transactions": ["delivery", "pickup"], "price": "$", "location": {"address1": "555 N Fwy", "address2": "", "address3": "", "city": "Tucson", "zip_code": "85745", "country": "US", "state": "AZ", "display_address": ["555 N Fwy", "Tucson, AZ 85745"]}, "phone": "+15206238249", "display_phone": "(520) 623-8249", "distance": 5163.412565305691}, {"id": "hJ3LjSxb2gYuVKOHbS8duQ", "alias": "barnfire-mesquite-grill-tucson", "name": "Barnfire Mesquite Grill", "image_url": "https://s3-media3.fl.yelpcdn.com/bphoto/SmJHd9eBfo96fN6YZtiUmQ/o.jpg", "is_closed": false, "url": "https://www.yelp.com/biz/barnfire-mesquite-grill-tucson?adjust_creative=aS_rL-t7T-VBizbYoW5ToA&utm_campaign=yelp_api_v3&utm_medium=api_v3_business_search&utm_source=aS_rL-t7T-VBizbYoW5ToA", "review_count": 161, "categories": [{"alias": "steak", "title": "Steakhouses"}, {"alias": "sportsbars", "title": "Sports Bars"}, {"alias": "tradamerican", "title": "American (Traditional)"}], "rating": 3.0, "coordinates": {"latitude": 32.35773553245836, "longitude": -111.04552304403646}, "transactions": ["delivery", "pickup"], "price": "$$", "location": {"address1": "8310 N Thornydale Rd", "address2": "", "address3": "", "city": "Tucson", "zip_code": "85741", "country": "US", "state": "AZ", "display_address": ["8310 N Thornydale Rd", "Tucson, AZ 85741"]}, "phone": "+15205725968", "display_phone": "(520) 572-5968", "distance": 16466.12709550427}, {"id": "AT6UYfUBqYQJ-fuGdu-zMg", "alias": "popeyes-louisiana-kitchen-tucson-4", "name": "Popeyes Louisiana Kitchen", "image_url": "https://s3-media2.fl.yelpcdn.com/bphoto/2xWq67JQj4fjl09KYAQyPA/o.jpg", "is_closed": false, "url": "https://www.yelp.com/biz/popeyes-louisiana-kitchen-tucson-4?adjust_creative=aS_rL-t7T-VBizbYoW5ToA&utm_campaign=yelp_api_v3&utm_medium=api_v3_business_search&utm_source=aS_rL-t7T-VBizbYoW5ToA", "review_count": 119, "categories": [{"alias": "chicken_wings", "title": "Chicken Wings"}, {"alias": "hotdogs", "title": "Fast Food"}], "rating": 2.0, "coordinates": {"latitude": 32.206938, "longitude": -110.839621}, "transactions": ["delivery", "pickup"], "price": "$", "location": {"address1": "7111 22nd St", "address2": "", "address3": "", "city": "Tucson", "zip_code": "85710", "country": "US", "state": "AZ", "display_address": ["7111 22nd St", "Tucson, AZ 85710"]}, "phone": "+15208861600", "display_phone": "(520) 886-1600", "distance": 9649.384536724714}, {"id": "yb6FghuECyG9qR1pgrVQ1w", "alias": "dominos-pizza-tucson-19", "name": "Domino's Pizza", "image_url": "https://s3-media4.fl.yelpcdn.com/bphoto/xu64lD1NyJzNGFkx-4bLWg/o.jpg", "is_closed": false, "url": "https://www.yelp.com/biz/dominos-pizza-tucson-19?adjust_creative=aS_rL-t7T-VBizbYoW5ToA&utm_campaign=yelp_api_v3&utm_medium=api_v3_business_search&utm_source=aS_rL-t7T-VBizbYoW5ToA", "review_count": 33, "categories": [{"alias": "pizza", "title": "Pizza"}, {"alias": "chicken_wings", "title": "Chicken Wings"}, {"alias": "sandwiches", "title": "Sandwiches"}], "rating": 2.0, "coordinates": {"latitude": 32.2020072937012, "longitude": -110.875625610352}, "transactions": [], "price": "$", "location": {"address1": "1620 S Craycroft Rd", "address2": null, "address3": null, "city": "Tucson", "zip_code": "85711", "country": "US", "state": "AZ", "display_address": ["1620 S Craycroft Rd", "Tucson, AZ 85711"]}, "phone": "+15207470550", "display_phone": "(520) 747-0550", "distance": 7135.487304687938}, {"id": "62B-29mSnrzTKRC1XPxFIw", "alias": "applebees-grill-bar-tucson", "name": "Applebee's Grill + Bar", "image_url": "https://s3-media3.fl.yelpcdn.com/bphoto/f1N8eXJmz0y2U2pmpXsWtw/o.jpg", "is_closed": false, "url": "https://www.yelp.com/biz/applebees-grill-bar-tucson?adjust_creative=aS_rL-t7T-VBizbYoW5ToA&utm_campaign=yelp_api_v3&utm_medium=api_v3_business_search&utm_source=aS_rL-t7T-VBizbYoW5ToA", "review_count": 131, "categories": [{"alias": "tradamerican", "title": "American (Traditional)"}, {"alias": "sportsbars", "title": "Sports Bars"}, {"alias": "burgers", "title": "Burgers"}], "rating": 2.5, "coordinates": {"latitude": 32.33778, "longitude": -111.01534}, "transactions": ["delivery", "pickup"], "price": "$$", "location": {"address1": "2230 W Ina Rd", "address2": "", "address3": "", "city": "Tucson", "zip_code": "85741", "country": "US", "state": "AZ", "display_address": ["2230 W Ina Rd", "Tucson, AZ 85741"]}, "phone": "+15202972220", "display_phone": "(520) 297-2220", "distance": 12956.503397083901}, {"id": "AJJwMAXaBQ9E_8424COF_w", "alias": "chilis-oro-valley", "name": "Chili's", "image_url": "https://s3-media1.fl.yelpcdn.com/bphoto/Dw-v0WM2omUBrHez8OF1QQ/o.jpg", "is_closed": false, "url": "https://www.yelp.com/biz/chilis-oro-valley?adjust_creative=aS_rL-t7T-VBizbYoW5ToA&utm_campaign=yelp_api_v3&utm_medium=api_v3_business_search&utm_source=aS_rL-t7T-VBizbYoW5ToA", "review_count": 84, "categories": [{"alias": "tradamerican", "title": "American (Traditional)"}, {"alias": "bars", "title": "Bars"}, {"alias": "tex-mex", "title": "Tex-Mex"}], "rating": 3.0, "coordinates": {"latitude": 32.40679, "longitude": -110.94686}, "transactions": ["delivery", "pickup"], "price": "$$", "location": {"address1": "11065 N Oracle Rd", "address2": "", "address3": "", "city": "Oro Valley", "zip_code": "85737", "country": "US", "state": "AZ", "display_address": ["11065 N Oracle Rd", "Oro Valley, AZ 85737"]}, "phone": "+15202195479", "display_phone": "(520) 219-5479", "distance": 18056.57350949491}, {"id": "zl69bXm0JFqWNjw9a9UHvQ", "alias": "golden-corral-buffet-and-grill-tucson-2", "name": "Golden Corral Buffet & Grill", "image_url": "https://s3-media4.fl.yelpcdn.com/bphoto/skoWVuyfzdlHyE2FWnGVkA/o.jpg", "is_closed": false, "url": "https://www.yelp.com/biz/golden-corral-buffet-and-grill-tucson-2?adjust_creative=aS_rL-t7T-VBizbYoW5ToA&utm_campaign=yelp_api_v3&utm_medium=api_v3_business_search&utm_source=aS_rL-t7T-VBizbYoW5ToA", "review_count": 39, "categories": [{"alias": "buffets", "title": "Buffets"}, {"alias": "tradamerican", "title": "American (Traditional)"}], "rating": 2.0, "coordinates": {"latitude": 32.135967, "longitude": -110.9981186}, "transactions": [], "location": {"address1": "6385 S Midvale Park Rd", "address2": "", "address3": "", "city": "Tucson", "zip_code": "85746", "country": "US", "state": "AZ", "display_address": ["6385 S Midvale Park Rd", "Tucson, AZ 85746"]}, "phone": "+15208060088", "display_phone": "(520) 806-0088", "distance": 13656.021209224084}, {"id": "Qd5FpQhQCQ-OFWATqfcxGw", "alias": "golden-corral-buffet-and-grill-tucson-3", "name": "Golden Corral Buffet & Grill", "image_url": "https://s3-media4.fl.yelpcdn.com/bphoto/aizRqDSyZnnITSdE8tQtaQ/o.jpg", "is_closed": false, "url": "https://www.yelp.com/biz/golden-corral-buffet-and-grill-tucson-3?adjust_creative=aS_rL-t7T-VBizbYoW5ToA&utm_campaign=yelp_api_v3&utm_medium=api_v3_business_search&utm_source=aS_rL-t7T-VBizbYoW5ToA", "review_count": 79, "categories": [{"alias": "buffets", "title": "Buffets"}, {"alias": "tradamerican", "title": "American (Traditional)"}, {"alias": "breakfast_brunch", "title": "Breakfast & Brunch"}], "rating": 2.5, "coordinates": {"latitude": 32.331401, "longitude": -111.046929}, "transactions": ["delivery", "pickup"], "price": "$$", "location": {"address1": "6865 N Thornydale Rd", "address2": null, "address3": null, "city": "Tucson", "zip_code": "85741", "country": "US", "state": "AZ", "display_address": ["6865 N Thornydale Rd", "Tucson, AZ 85741"]}, "phone": "+15205440350", "display_phone": "(520) 544-0350", "distance": 14466.40791306819}, {"id": "gSj1MMZGIVbx6tNRRUoYxw", "alias": "dennys-tucson-13", "name": "Denny's", "image_url": "https://s3-media1.fl.yelpcdn.com/bphoto/pz2b811fopaXLVDw9ZwuxQ/o.jpg", "is_closed": false, "url": "https://www.yelp.com/biz/dennys-tucson-13?adjust_creative=aS_rL-t7T-VBizbYoW5ToA&utm_campaign=yelp_api_v3&utm_medium=api_v3_business_search&utm_source=aS_rL-t7T-VBizbYoW5ToA", "review_count": 79, "categories": [{"alias": "diners", "title": "Diners"}, {"alias": "breakfast_brunch", "title": "Breakfast & Brunch"}, {"alias": "tradamerican", "title": "American (Traditional)"}], "rating": 3.0, "coordinates": {"latitude": 32.085012151120196, "longitude": -110.7734181}, "transactions": ["delivery", "pickup"], "location": {"address1": "9220 S Houghton Rd", "address2": "", "address3": null, "city": "Tucson", "zip_code": "85747", "country": "US", "state": "AZ", "display_address": ["9220 S Houghton Rd", "Tucson, AZ 85747"]}, "phone": "+15208497017", "display_phone": "(520) 849-7017", "distance": 23218.44045106368}, {"id": "6V8DwSReNWuwGkQo7hJ_jQ", "alias": "chilis-tucson-7", "name": "Chili's", "image_url": "https://s3-media4.fl.yelpcdn.com/bphoto/ug4lbF8DE-FxYtNjXoSHBQ/o.jpg", "is_closed": false, "url": "https://www.yelp.com/biz/chilis-tucson-7?adjust_creative=aS_rL-t7T-VBizbYoW5ToA&utm_campaign=yelp_api_v3&utm_medium=api_v3_business_search&utm_source=aS_rL-t7T-VBizbYoW5ToA", "review_count": 130, "categories": [{"alias": "tradamerican", "title": "American (Traditional)"}, {"alias": "bars", "title": "Bars"}, {"alias": "tex-mex", "title": "Tex-Mex"}], "rating": 2.5, "coordinates": {"latitude": 32.35452, "longitude": -111.09252}, "transactions": ["delivery", "pickup"], "price": "$$", "location": {"address1": "5975 W Arizona Pavilions Dr", "address2": null, "address3": null, "city": "Tucson", "zip_code": "85743", "country": "US", "state": "AZ", "display_address": ["5975 W Arizona Pavilions Dr", "Tucson, AZ 85743"]}, "phone": "+15205729065", "display_phone": "(520) 572-9065", "distance": 19377.855028302714}, {"id": "Bey6zC3Q6D1PTzqzPU32VA", "alias": "legends-bar-and-grill-tucson-2", "name": "Legends Bar & Grill", "image_url": "https://s3-media2.fl.yelpcdn.com/bphoto/uue8PzgAO9Cwh6uZgWeJ9A/o.jpg", "is_closed": false, "url": "https://www.yelp.com/biz/legends-bar-and-grill-tucson-2?adjust_creative=aS_rL-t7T-VBizbYoW5ToA&utm_campaign=yelp_api_v3&utm_medium=api_v3_business_search&utm_source=aS_rL-t7T-VBizbYoW5ToA", "review_count": 35, "categories": [{"alias": "tradamerican", "title": "American (Traditional)"}], "rating": 3.5, "coordinates": {"latitude": 32.3576668595962, "longitude": -111.025655857707}, "transactions": ["delivery"], "price": "$$", "location": {"address1": "2727 West Club Dr", "address2": "", "address3": "Omni Tucson National Resort", "city": "Tucson", "zip_code": "85742", "country": "US", "state": "AZ", "display_address": ["2727 West Club Dr", "Omni Tucson National Resort", "Tucson, AZ 85742"]}, "phone": "+15208772378", "display_phone": "(520) 877-2378", "distance": 15312.673454158095}, {"id": "zMBnxBz4txWqKZHsDCXPvw", "alias": "churchs-chicken-tucson", "name": "Church's Chicken", "image_url": "https://s3-media3.fl.yelpcdn.com/bphoto/CXdjafhEfse-ZeMu1xClAQ/o.jpg", "is_closed": false, "url": "https://www.yelp.com/biz/churchs-chicken-tucson?adjust_creative=aS_rL-t7T-VBizbYoW5ToA&utm_campaign=yelp_api_v3&utm_medium=api_v3_business_search&utm_source=aS_rL-t7T-VBizbYoW5ToA", "review_count": 31, "categories": [{"alias": "chicken_wings", "title": "Chicken Wings"}, {"alias": "hotdogs", "title": "Fast Food"}], "rating": 2.0, "coordinates": {"latitude": 32.22054, "longitude": -110.82134}, "transactions": ["delivery", "pickup"], "price": "$", "location": {"address1": "7980 E Broadway Blvd", "address2": "", "address3": "", "city": "Tucson", "zip_code": "85710", "country": "US", "state": "AZ", "display_address": ["7980 E Broadway Blvd", "Tucson, AZ 85710"]}, "phone": "+15202981851", "display_phone": "(520) 298-1851", "distance": 10740.4813421717}, {"id": "OrJlKf85cdGoGPl5Yhj5ww", "alias": "dominos-pizza-tucson-11", "name": "Domino's Pizza", "image_url": "https://s3-media4.fl.yelpcdn.com/bphoto/64-FfP3KqzyT9CiLcpHJQQ/o.jpg", "is_closed": false, "url": "https://www.yelp.com/biz/dominos-pizza-tucson-11?adjust_creative=aS_rL-t7T-VBizbYoW5ToA&utm_campaign=yelp_api_v3&utm_medium=api_v3_business_search&utm_source=aS_rL-t7T-VBizbYoW5ToA", "review_count": 22, "categories": [{"alias": "pizza", "title": "Pizza"}, {"alias": "chicken_wings", "title": "Chicken Wings"}, {"alias": "sandwiches", "title": "Sandwiches"}], "rating": 2.0, "coordinates": {"latitude": 32.13481, "longitude": -111.03062}, "transactions": [], "price": "$", "location": {"address1": "3040 W Valencia", "address2": "", "address3": "", "city": "Tucson", "zip_code": "85713", "country": "US", "state": "AZ", "display_address": ["3040 W Valencia", "Tucson, AZ 85713"]}, "phone": "+15205733030", "display_phone": "(520) 573-3030", "distance": 15499.089764914677}, {"id": "L9oNuIKaKUs4uoZttm1GZg", "alias": "dennys-tucson-8", "name": "Denny's", "image_url": "https://s3-media2.fl.yelpcdn.com/bphoto/PgenXFJXbw0MyWjtNg592A/o.jpg", "is_closed": false, "url": "https://www.yelp.com/biz/dennys-tucson-8?adjust_creative=aS_rL-t7T-VBizbYoW5ToA&utm_campaign=yelp_api_v3&utm_medium=api_v3_business_search&utm_source=aS_rL-t7T-VBizbYoW5ToA", "review_count": 127, "categories": [{"alias": "diners", "title": "Diners"}, {"alias": "tradamerican", "title": "American (Traditional)"}, {"alias": "breakfast_brunch", "title": "Breakfast & Brunch"}], "rating": 2.0, "coordinates": {"latitude": 32.2205675783183, "longitude": -110.855329781771}, "transactions": ["delivery", "pickup"], "price": "$", "location": {"address1": "6484 E Broadway Blvd", "address2": "", "address3": "", "city": "Tucson", "zip_code": "85710", "country": "US", "state": "AZ", "display_address": ["6484 E Broadway Blvd", "Tucson, AZ 85710"]}, "phone": "+15207479594", "display_phone": "(520) 747-9594", "distance": 7686.3529065705125}, {"id": "u2yc9zHYx8mdPPdpK0gwjQ", "alias": "dennys-tucson-9", "name": "Denny's", "image_url": "https://s3-media3.fl.yelpcdn.com/bphoto/IAsd7DGEPw1o_MdiFLuknQ/o.jpg", "is_closed": false, "url": "https://www.yelp.com/biz/dennys-tucson-9?adjust_creative=aS_rL-t7T-VBizbYoW5ToA&utm_campaign=yelp_api_v3&utm_medium=api_v3_business_search&utm_source=aS_rL-t7T-VBizbYoW5ToA", "review_count": 97, "categories": [{"alias": "tradamerican", "title": "American (Traditional)"}, {"alias": "breakfast_brunch", "title": "Breakfast & Brunch"}, {"alias": "diners", "title": "Diners"}], "rating": 3.0, "coordinates": {"latitude": 32.2977989271771, "longitude": -110.977690350337}, "transactions": ["delivery", "pickup"], "price": "$$", "location": {"address1": "5000 Oracle Rd", "address2": "", "address3": "", "city": "Tucson", "zip_code": "85704", "country": "US", "state": "AZ", "display_address": ["5000 Oracle Rd", "Tucson, AZ 85704"]}, "phone": "+15208885195", "display_phone": "(520) 888-5195", "distance": 7276.8634343205695}, {"id": "IxP1AjJo8yqQM7SeMLeR7g", "alias": "dennys-tucson-6", "name": "Denny's", "image_url": "https://s3-media3.fl.yelpcdn.com/bphoto/8yH6QbJ2G2NURDkMOE485g/o.jpg", "is_closed": false, "url": "https://www.yelp.com/biz/dennys-tucson-6?adjust_creative=aS_rL-t7T-VBizbYoW5ToA&utm_campaign=yelp_api_v3&utm_medium=api_v3_business_search&utm_source=aS_rL-t7T-VBizbYoW5ToA", "review_count": 36, "categories": [{"alias": "breakfast_brunch", "title": "Breakfast & Brunch"}, {"alias": "tradamerican", "title": "American (Traditional)"}, {"alias": "diners", "title": "Diners"}], "rating": 2.0, "coordinates": {"latitude": 32.16250523733715, "longitude": -110.91385960578918}, "transactions": ["delivery", "pickup"], "price": "$", "location": {"address1": "3702 E Irvington Rd", "address2": "", "address3": "", "city": "Tucson", "zip_code": "85714", "country": "US", "state": "AZ", "display_address": ["3702 E Irvington Rd", "Tucson, AZ 85714"]}, "phone": "+15207452099", "display_phone": "(520) 745-2099", "distance": 9343.000667586362}, {"id": "pCrNsRdZGzUzz8Ye5w-lpQ", "alias": "dominos-pizza-tucson-8", "name": "Domino's Pizza", "image_url": "https://s3-media1.fl.yelpcdn.com/bphoto/HJTyhdy94CAnE3y6StpTlQ/o.jpg", "is_closed": false, "url": "https://www.yelp.com/biz/dominos-pizza-tucson-8?adjust_creative=aS_rL-t7T-VBizbYoW5ToA&utm_campaign=yelp_api_v3&utm_medium=api_v3_business_search&utm_source=aS_rL-t7T-VBizbYoW5ToA", "review_count": 37, "categories": [{"alias": "pizza", "title": "Pizza"}, {"alias": "chicken_wings", "title": "Chicken Wings"}, {"alias": "sandwiches", "title": "Sandwiches"}], "rating": 2.0, "coordinates": {"latitude": 32.1923751831055, "longitude": -110.807991027832}, "transactions": [], "price": "$", "location": {"address1": "8615 E Golf Links Rd", "address2": "", "address3": "", "city": "Tucson", "zip_code": "85730", "country": "US", "state": "AZ", "display_address": ["8615 E Golf Links Rd", "Tucson, AZ 85730"]}, "phone": "+15207218118", "display_phone": "(520) 721-8118", "distance": 13036.616896083146}, {"id": "M-CLnuyl8HvYv68y9Emu-w", "alias": "papa-johns-pizza-tucson-9", "name": "Papa Johns Pizza", "image_url": "https://s3-media3.fl.yelpcdn.com/bphoto/Ntw6fq0tOrYU6xwn1iC92A/o.jpg", "is_closed": false, "url": "https://www.yelp.com/biz/papa-johns-pizza-tucson-9?adjust_creative=aS_rL-t7T-VBizbYoW5ToA&utm_campaign=yelp_api_v3&utm_medium=api_v3_business_search&utm_source=aS_rL-t7T-VBizbYoW5ToA", "review_count": 22, "categories": [{"alias": "pizza", "title": "Pizza"}, {"alias": "chicken_wings", "title": "Chicken Wings"}, {"alias": "hotdogs", "title": "Fast Food"}], "rating": 2.5, "coordinates": {"latitude": 32.10165294347125, "longitude": -110.77373039641913}, "transactions": ["delivery", "pickup"], "price": "$", "location": {"address1": "8270 S Houghton Rd", "address2": "Ste 110", "address3": null, "city": "Tucson", "zip_code": "85747", "country": "US", "state": "AZ", "display_address": ["8270 S Houghton Rd", "Ste 110", "Tucson, AZ 85747"]}, "phone": "+15206641144", "display_phone": "(520) 664-1144", "distance": 21810.605371346668}, {"id": "UnIxj6MCluR-aMuGiree8w", "alias": "dennys-tucson-7", "name": "Denny's", "image_url": "https://s3-media1.fl.yelpcdn.com/bphoto/Pf8T_Z6qde7hEDdIUvqaAg/o.jpg", "is_closed": false, "url": "https://www.yelp.com/biz/dennys-tucson-7?adjust_creative=aS_rL-t7T-VBizbYoW5ToA&utm_campaign=yelp_api_v3&utm_medium=api_v3_business_search&utm_source=aS_rL-t7T-VBizbYoW5ToA", "review_count": 58, "categories": [{"alias": "breakfast_brunch", "title": "Breakfast & Brunch"}, {"alias": "tradamerican", "title": "American (Traditional)"}, {"alias": "diners", "title": "Diners"}], "rating": 3.0, "coordinates": {"latitude": 32.1336674392254, "longitude": -110.932900607586}, "transactions": ["delivery", "pickup"], "price": "$", "location": {"address1": "2630 E Valencia Rd", "address2": "", "address3": "", "city": "Tucson", "zip_code": "85706", "country": "US", "state": "AZ", "display_address": ["2630 E Valencia Rd", "Tucson, AZ 85706"]}, "phone": "+15202946131", "display_phone": "(520) 294-6131", "distance": 12398.075029424383}, {"id": "qaWM4T1eQoUMSRJ2AL2U1w", "alias": "red-lobster-oro-valley", "name": "Red Lobster", "image_url": "https://s3-media1.fl.yelpcdn.com/bphoto/TbcyR9KNhnNHoEwW0xmw9w/o.jpg", "is_closed": false, "url": "https://www.yelp.com/biz/red-lobster-oro-valley?adjust_creative=aS_rL-t7T-VBizbYoW5ToA&utm_campaign=yelp_api_v3&utm_medium=api_v3_business_search&utm_source=aS_rL-t7T-VBizbYoW5ToA", "review_count": 70, "categories": [{"alias": "seafood", "title": "Seafood"}, {"alias": "tradamerican", "title": "American (Traditional)"}], "rating": 3.0, "coordinates": {"latitude": 32.418604, "longitude": -110.938204}, "transactions": ["delivery", "pickup"], "price": "$$", "location": {"address1": "11695 N Oracle Rd", "address2": "Oro Valley Marketplace", "address3": null, "city": "Oro Valley", "zip_code": "85737", "country": "US", "state": "AZ", "display_address": ["11695 N Oracle Rd", "Oro Valley Marketplace", "Oro Valley, AZ 85737"]}, "phone": "+15205447887", "display_phone": "(520) 544-7887", "distance": 19295.577164336617}, {"id": "X0tlzqEITaegYt10WJkSFA", "alias": "dennys-oro-valley", "name": "Denny's", "image_url": "https://s3-media2.fl.yelpcdn.com/bphoto/M2YWwC22CIjykQCFZvriog/o.jpg", "is_closed": false, "url": "https://www.yelp.com/biz/dennys-oro-valley?adjust_creative=aS_rL-t7T-VBizbYoW5ToA&utm_campaign=yelp_api_v3&utm_medium=api_v3_business_search&utm_source=aS_rL-t7T-VBizbYoW5ToA", "review_count": 24, "categories": [{"alias": "diners", "title": "Diners"}, {"alias": "tradamerican", "title": "American (Traditional)"}, {"alias": "breakfast_brunch", "title": "Breakfast & Brunch"}], "rating": 3.0, "coordinates": {"latitude": 32.407913, "longitude": -110.945451}, "transactions": ["delivery", "pickup"], "price": "$$", "location": {"address1": "11107 N Oracle Rd", "address2": "", "address3": null, "city": "Oro Valley", "zip_code": "85737", "country": "US", "state": "AZ", "display_address": ["11107 N Oracle Rd", "Oro Valley, AZ 85737"]}, "phone": "+15202690696", "display_phone": "(520) 269-0696", "distance": 18143.173645840747}, {"id": "UILorKaBGq7u_K6wUZKYnA", "alias": "dennys-tucson-5", "name": "Denny's", "image_url": "https://s3-media1.fl.yelpcdn.com/bphoto/u3HNYSxZwIXa8JHeyN0Nmw/o.jpg", "is_closed": false, "url": "https://www.yelp.com/biz/dennys-tucson-5?adjust_creative=aS_rL-t7T-VBizbYoW5ToA&utm_campaign=yelp_api_v3&utm_medium=api_v3_business_search&utm_source=aS_rL-t7T-VBizbYoW5ToA", "review_count": 54, "categories": [{"alias": "tradamerican", "title": "American (Traditional)"}, {"alias": "breakfast_brunch", "title": "Breakfast & Brunch"}, {"alias": "diners", "title": "Diners"}], "rating": 2.5, "coordinates": {"latitude": 32.33806085248846, "longitude": -111.0696529}, "transactions": ["delivery", "pickup"], "price": "$", "location": {"address1": "4920 W Ina Rd", "address2": "", "address3": "", "city": "Tucson", "zip_code": "85741", "country": "US", "state": "AZ", "display_address": ["4920 W Ina Rd", "Tucson, AZ 85741"]}, "phone": "+15207446805", "display_phone": "(520) 744-6805", "distance": 16578.657595777702}, {"id": "Wcf04Kz9HGlOKazulJ2Jcg", "alias": "ihop-tucson-9", "name": "IHOP", "image_url": "https://s3-media3.fl.yelpcdn.com/bphoto/SS2Zl7nHvl7aPzZCG8xw-w/o.jpg", "is_closed": false, "url": "https://www.yelp.com/biz/ihop-tucson-9?adjust_creative=aS_rL-t7T-VBizbYoW5ToA&utm_campaign=yelp_api_v3&utm_medium=api_v3_business_search&utm_source=aS_rL-t7T-VBizbYoW5ToA", "review_count": 100, "categories": [{"alias": "tradamerican", "title": "American (Traditional)"}, {"alias": "breakfast_brunch", "title": "Breakfast & Brunch"}, {"alias": "burgers", "title": "Burgers"}], "rating": 2.5, "coordinates": {"latitude": 32.35982, "longitude": -111.08498}, "transactions": ["delivery", "pickup"], "price": "$$", "location": {"address1": "8445 N Cerius StrAve", "address2": "", "address3": "", "city": "Tucson", "zip_code": "85742", "country": "US", "state": "AZ", "display_address": ["8445 N Cerius StrAve", "Tucson, AZ 85742"]}, "phone": "+15207441316", "display_phone": "(520) 744-1316", "distance": 19237.50759319759}]